$GPGGA,155801.800,4943.32954,N,01323.20454,E,1,9,1.0,316.1,M,46.0,M,,*64
$GPGLL,4943.32954,N,01323.20454,E,155801.800,A*33
$GPRMC,155801.800,A,4943.32954,N,01323.20454,E,8.10,91.4,021210,0.0,E*6A
$GPVTG,91.4,T,91.4,M,8.10,N,15.00,K*73
$GPGGA,155802.800,4943.32924,N,01323.20914,E,1,9,1.0,315.8,M,46.0,M,,*63
$GPGLL,4943.32924,N,01323.20914,E,155802.800,A*3E
$GPRMC,155802.800,A,4943.32924,N,01323.20914,E,8.30,94.0,021210,0.0,E*64
$GPVTG,94.0,T,94.0,M,8.30,N,15.37,K*75
$GPGGA,155803.800,4943.32852,N,01323.21299,E,1,9,1.0,316.1,M,46.0,M,,*67
$GPGLL,4943.32852,N,01323.21299,E,155803.800,A*30
$GPRMC,155803.800,A,4943.32852,N,01323.21299,E,8.10,95.8,021210,0.0,E*61
$GPVTG,95.8,T,95.8,M,8.10,N,15.00,K*73
$GPGSA,A,3,14,17,19,20,23,24,31,32,,,,,1.6,1.0,1.2*3A
$GPGSV,2,1,08,32,84,272,26,31,11,106,26,24,71,118,26,20,53,255,24*71
$GPGSV,2,2,08,11,76,220,22,19,17,174,20,23,12,195,19,14,28,046,17*72
$GPGGA,155804.800,4943.32807,N,01323.21592,E,1,9,1.0,315.3,M,46.0,M,,*6D
$GPGLL,4943.32807,N,01323.21592,E,155804.800,A*3B
$GPRMC,155804.800,A,4943.32807,N,01323.21592,E,7.30,98.5,021210,0.0,E*67
$GPVTG,98.5,T,98.5,M,7.30,N,13.52,K*7F
$GPGGA,155805.800,4943.32821,N,01323.21916,E,1,9,1.0,315.5,M,46.0,M,,*6E
$GPGLL,4943.32821,N,01323.21916,E,155805.800,A*3E
$GPRMC,155805.800,A,4943.32821,N,01323.21916,E,6.70,98.5,021210,0.0,E*67
$GPVTG,98.5,T,98.5,M,6.70,N,12.41,K*79
$GPGGA,155806.800,4943.32969,N,01323.22206,E,1,9,1.0,317.1,M,46.0,M,,*6F
$GPGLL,4943.32969,N,01323.22206,E,155806.800,A*39
$GPRMC,155806.800,A,4943.32969,N,01323.22206,E,5.60,81.2,021210,0.0,E*6D
$GPVTG,81.2,T,81.2,M,5.60,N,10.37,K*78
$GPGGA,155807.800,4943.32919,N,01323.22279,E,1,9,1.0,316.9,M,46.0,M,,*68
$GPGLL,4943.32919,N,01323.22279,E,155807.800,A*37
$GPRMC,155807.800,A,4943.32919,N,01323.22279,E,4.40,87.2,021210,0.0,E*66
$GPVTG,87.2,T,87.2,M,4.40,N,8.15,K*42
$GPGGA,155808.800,4943.32952,N,01323.22488,E,1,9,1.0,317.3,M,46.0,M,,*6B
$GPGLL,4943.32952,N,01323.22488,E,155808.800,A*3F
$GPRMC,155808.800,A,4943.32952,N,01323.22488,E,4.60,84.3,021210,0.0,E*6E
$GPVTG,84.3,T,84.3,M,4.60,N,8.52,K*43
$GPGSA,A,3,14,17,19,20,23,24,31,32,,,,,1.6,1.0,1.2*3A
$GPGSV,2,1,08,20,53,255,26,32,84,272,25,24,71,118,24,23,12,195,23*7D
$GPGSV,2,2,08,14,28,046,23,31,11,106,20,11,76,220,19,17,27,309,17*7C
$GPGGA,155809.800,4943.32976,N,01323.22676,E,1,9,1.0,317.9,M,46.0,M,,*65
$GPGLL,4943.32976,N,01323.22676,E,155809.800,A*3B
$GPRMC,155809.800,A,4943.32976,N,01323.22676,E,5.00,76.5,021210,0.0,E*66
$GPVTG,76.5,T,76.5,M,5.00,N,9.26,K*46
$GPGGA,155810.800,4943.33082,N,01323.22884,E,1,10,0.9,318.1,M,46.0,M,,*5A
$GPGLL,4943.33082,N,01323.22884,E,155810.800,A*33
$GPRMC,155810.800,A,4943.33082,N,01323.22884,E,5.90,59.6,021210,0.0,E*69
$GPVTG,59.6,T,59.6,M,5.90,N,10.93,K*79
$GPGGA,155811.800,4943.33314,N,01323.23089,E,1,10,0.9,318.2,M,46.0,M,,*50
$GPGLL,4943.33314,N,01323.23089,E,155811.800,A*3A
$GPRMC,155811.800,A,4943.33314,N,01323.23089,E,7.20,39.1,021210,0.0,E*68
$GPVTG,39.1,T,39.1,M,7.20,N,13.33,K*79
$GPGGA,155812.800,4943.33616,N,01323.23258,E,1,10,0.9,318.4,M,46.0,M,,*5C
$GPGLL,4943.33616,N,01323.23258,E,155812.800,A*30
$GPRMC,155812.800,A,4943.33616,N,01323.23258,E,9.10,29.1,021210,0.0,E*6E
$GPVTG,29.1,T,29.1,M,9.10,N,16.85,K*7C
$GPGGA,155813.800,4943.33894,N,01323.23376,E,1,10,0.9,318.5,M,46.0,M,,*55
$GPGLL,4943.33894,N,01323.23376,E,155813.800,A*38
$GPRMC,155813.800,A,4943.33894,N,01323.23376,E,9.80,21.4,021210,0.0,E*62
$GPVTG,21.4,T,21.4,M,9.80,N,18.15,K*72
$GPGSA,A,3,14,17,19,20,23,24,28,31,32,,,,1.3,0.9,1.0*3F
$GPGSV,3,1,09,14,28,046,25,17,27,309,25,23,12,195,24,20,53,255,22*79
$GPGSV,3,2,09,11,76,220,22,31,11,106,19,24,71,118,18,19,17,174,17*76
$GPGGA,155814.800,4943.34307,N,01323.23484,E,1,10,0.9,317.8,M,46.0,M,,*5C
$GPGLL,4943.34307,N,01323.23484,E,155814.800,A*33
$GPRMC,155814.800,A,4943.34307,N,01323.23484,E,12.50,14.2,021210,0.0,E*5E
$GPVTG,14.2,T,14.2,M,12.50,N,23.15,K*4D
$GPGGA,155815.800,4943.34757,N,01323.23668,E,1,10,0.9,317.9,M,46.0,M,,*5D
$GPGLL,4943.34757,N,01323.23668,E,155815.800,A*33
$GPRMC,155815.800,A,4943.34757,N,01323.23668,E,14.50,14.8,021210,0.0,E*52
$GPVTG,14.8,T,14.8,M,14.50,N,26.85,K*47
$GPGGA,155816.800,4943.35239,N,01323.23881,E,1,10,0.9,318.2,M,46.0,M,,*5F
$GPGLL,4943.35239,N,01323.23881,E,155816.800,A*35
$GPRMC,155816.800,A,4943.35239,N,01323.23881,E,16.30,15.7,021210,0.0,E*5E
$GPVTG,15.7,T,15.7,M,16.30,N,30.19,K*41
$GPGGA,155817.800,4943.35753,N,01323.23973,E,1,10,0.9,318.4,M,46.0,M,,*5D
$GPGLL,4943.35753,N,01323.23973,E,155817.800,A*31
$GPRMC,155817.800,A,4943.35753,N,01323.23973,E,17.70,10.3,021210,0.0,E*5E
$GPVTG,10.3,T,10.3,M,17.70,N,32.78,K*41
$GPGGA,155818.800,4943.36454,N,01323.24086,E,1,10,0.9,318.7,M,46.0,M,,*52
$GPGLL,4943.36454,N,01323.24086,E,155818.800,A*3D
$GPRMC,155818.800,A,4943.36454,N,01323.24086,E,19.10,9.9,021210,0.0,E*68
$GPVTG,9.9,T,9.9,M,19.10,N,35.37,K*45
$GPGSA,A,3,14,17,19,20,23,24,28,31,32,,,,1.3,0.9,1.0*3F
$GPGSV,3,1,09,19,17,174,26,17,27,309,25,23,12,195,19,24,71,118,19*73
$GPGSV,3,2,09,32,84,272,18,14,28,046,18,20,53,255,15,11,76,220,15*71
$GPGGA,155819.800,4943.37047,N,01323.24093,E,1,10,0.9,318.8,M,46.0,M,,*5F
$GPGLL,4943.37047,N,01323.24093,E,155819.800,A*3F
$GPRMC,155819.800,A,4943.37047,N,01323.24093,E,20.00,8.7,021210,0.0,E*6E
$GPVTG,8.7,T,8.7,M,20.00,N,37.04,K*4C
$GPGGA,155820.800,4943.37664,N,01323.24083,E,1,10,1.0,319.2,M,46.0,M,,*50
$GPGLL,4943.37664,N,01323.24083,E,155820.800,A*33
$GPRMC,155820.800,A,4943.37664,N,01323.24083,E,20.30,6.5,021210,0.0,E*6D
$GPVTG,6.5,T,6.5,M,20.30,N,37.60,K*4D
$GPGGA,155822.800,4943.38782,N,01323.24374,E,1,10,1.0,319.3,M,46.0,M,,*5E
$GPGLL,4943.38782,N,01323.24374,E,155822.800,A*3C
$GPRMC,155822.800,A,4943.38782,N,01323.24374,E,20.40,8.5,021210,0.0,E*6B
$GPVTG,8.5,T,8.5,M,20.40,N,37.78,K*43
$GPGSA,A,0,,,,,,,,,,,,,0.0,0.0,0.0*31
$GPGGA,155825.800,4943.40447,N,01323.24454,E,1,10,1.0,319.4,M,46.0,M,,*5E
$GPGLL,4943.40447,N,01323.24454,E,155825.800,A*3B
$GPRMC,155825.800,A,4943.40447,N,01323.24454,E,18.80,7.6,021210,0.0,E*67
$GPVTG,7.6,T,7.6,M,18.80,N,34.82,K*42
$GPGGA,155827.800,4943.41734,N,01323.24364,E,1,10,1.0,319.4,M,46.0,M,,*5E
$GPGLL,4943.41734,N,01323.24364,E,155827.800,A*3B
$GPRMC,155827.800,A,4943.41734,N,01323.24364,E,20.10,359.9,021210,0.0,E*62
$GPVTG,359.9,T,359.9,M,20.10,N,37.23,K*48
$GPGSA,A,3,14,17,19,20,23,24,31,32,,,,,1.6,1.0,1.2*3A
$GPGSV,2,1,08,14,28,046,24,24,71,118,23,17,27,309,22,31,11,106,20*7E
$GPGSV,2,2,08,19,17,174,20,20,53,255,20,11,76,220,20,23,12,195,19*7F
$GPGGA,155829.800,4943.42974,N,01323.24134,E,1,9,1.0,318.6,M,46.0,M,,*65
$GPGLL,4943.42974,N,01323.24134,E,155829.800,A*3B
$GPRMC,155829.800,A,4943.42974,N,01323.24134,E,21.00,355.2,021210,0.0,E*65
$GPVTG,355.2,T,355.2,M,21.00,N,38.89,K*47
$GPGGA,155831.800,4943.44169,N,01323.23791,E,1,9,1.0,317.7,M,46.0,M,,*6E
$GPGLL,4943.44169,N,01323.23791,E,155831.800,A*3E
$GPRMC,155831.800,A,4943.44169,N,01323.23791,E,20.00,354.4,021210,0.0,E*66
$GPVTG,354.4,T,354.4,M,20.00,N,37.04,K*4C
$GPGGA,155832.800,4943.44766,N,01323.23824,E,1,9,1.0,317.5,M,46.0,M,,*67
$GPGLL,4943.44766,N,01323.23824,E,155832.800,A*35
$GPRMC,155832.800,A,4943.44766,N,01323.23824,E,20.40,359.3,021210,0.0,E*63
$GPVTG,359.3,T,359.3,M,20.40,N,37.78,K*43
$GPGGA,155833.800,4943.45249,N,01323.23929,E,1,9,1.0,318.3,M,46.0,M,,*6A
$GPGLL,4943.45249,N,01323.23929,E,155833.800,A*31
$GPRMC,155833.800,A,4943.45249,N,01323.23929,E,19.60,4.7,021210,0.0,E*60
$GPVTG,4.7,T,4.7,M,19.60,N,36.30,K*46
$GPGGA,155834.800,4943.45927,N,01323.24162,E,1,9,1.0,318.5,M,46.0,M,,*68
$GPGLL,4943.45927,N,01323.24162,E,155834.800,A*35
$GPRMC,155834.800,A,4943.45927,N,01323.24162,E,20.90,5.5,021210,0.0,E*62
$GPVTG,5.5,T,5.5,M,20.90,N,38.71,K*48
$GPGSA,A,3,14,17,19,20,23,24,31,32,,,,,1.6,1.0,1.2*3A
$GPGSV,2,1,08,31,11,106,23,14,28,046,22,11,76,220,22,23,12,195,22*75
$GPGSV,2,2,08,24,71,118,21,20,53,255,19,32,84,272,18,17,27,309,17*78
$GPGGA,155835.800,4943.46527,N,01323.24254,E,1,9,1.0,318.1,M,46.0,M,,*64
$GPGLL,4943.46527,N,01323.24254,E,155835.800,A*3D
$GPRMC,155835.800,A,4943.46527,N,01323.24254,E,21.20,6.7,021210,0.0,E*61
$GPVTG,6.7,T,6.7,M,21.20,N,39.26,K*41
$GPGGA,155836.800,4943.47041,N,01323.24214,E,1,9,1.0,317.7,M,46.0,M,,*6E
$GPGLL,4943.47041,N,01323.24214,E,155836.800,A*3E
$GPRMC,155836.800,A,4943.47041,N,01323.24214,E,20.90,9.8,021210,0.0,E*68
$GPVTG,9.8,T,9.8,M,20.90,N,38.71,K*48
$GPGGA,155837.800,4943.47641,N,01323.24131,E,1,9,1.0,317.3,M,46.0,M,,*69
$GPGLL,4943.47641,N,01323.24131,E,155837.800,A*3D
$GPRMC,155837.800,A,4943.47641,N,01323.24131,E,20.10,10.4,021210,0.0,E*57
$GPVTG,10.4,T,10.4,M,20.10,N,37.23,K*48
$GPGGA,155838.800,4943.48189,N,01323.24246,E,1,9,1.0,317.0,M,46.0,M,,*6A
$GPGLL,4943.48189,N,01323.24246,E,155838.800,A*3D
$GPRMC,155838.800,A,4943.48189,N,01323.24246,E,19.80,11.1,021210,0.0,E*50
$GPVTG,11.1,T,11.1,M,19.80,N,36.67,K*4A
$GPGGA,155839.800,4943.48727,N,01323.24616,E,1,9,1.0,317.3,M,46.0,M,,*6B
$GPGLL,4943.48727,N,01323.24616,E,155839.800,A*3F
$GPRMC,155839.800,A,4943.48727,N,01323.24616,E,19.80,13.0,021210,0.0,E*51
$GPVTG,13.0,T,13.0,M,19.80,N,36.67,K*4A
$GPGSA,A,3,14,17,19,20,23,24,31,32,,,,,1.6,1.0,1.2*3A
$GPGSV,2,1,08,11,76,220,24,32,84,272,20,24,71,118,20,17,27,309,20*7C
$GPGSV,2,2,08,20,53,255,18,19,17,174,17,14,28,046,15,23,12,195,14*77
$GPGGA,155840.800,4943.49274,N,01323.24799,E,1,9,1.0,316.6,M,46.0,M,,*65
$GPGLL,4943.49274,N,01323.24799,E,155840.800,A*35
$GPRMC,155840.800,A,4943.49274,N,01323.24799,E,19.60,13.9,021210,0.0,E*5C
$GPVTG,13.9,T,13.9,M,19.60,N,36.30,K*46
$GPGGA,155841.800,4943.49814,N,01323.24921,E,1,9,1.0,316.3,M,46.0,M,,*60
$GPGLL,4943.49814,N,01323.24921,E,155841.800,A*35
$GPRMC,155841.800,A,4943.49814,N,01323.24921,E,19.10,14.8,021210,0.0,E*5D
$GPVTG,14.8,T,14.8,M,19.10,N,35.37,K*45
$GPGGA,155842.800,4943.50243,N,01323.24724,E,1,9,1.0,316.8,M,46.0,M,,*63
$GPGLL,4943.50243,N,01323.24724,E,155842.800,A*3D
$GPRMC,155842.800,A,4943.50243,N,01323.24724,E,17.30,16.1,021210,0.0,E*52
$GPVTG,16.1,T,16.1,M,17.30,N,32.04,K*4E
$GPGGA,155843.800,4943.50704,N,01323.25009,E,1,9,1.0,316.5,M,46.0,M,,*60
$GPGLL,4943.50704,N,01323.25009,E,155843.800,A*33
$GPRMC,155843.800,A,4943.50704,N,01323.25009,E,17.00,16.8,021210,0.0,E*56
$GPVTG,16.8,T,16.8,M,17.00,N,31.48,K*46
$GPGGA,155844.800,4943.51102,N,01323.25074,E,1,9,1.0,316.0,M,46.0,M,,*69
$GPGLL,4943.51102,N,01323.25074,E,155844.800,A*3F
$GPRMC,155844.800,A,4943.51102,N,01323.25074,E,15.90,17.3,021210,0.0,E*5B
$GPVTG,17.3,T,17.3,M,15.90,N,29.45,K*49
$GPGSA,A,3,14,17,19,20,23,24,31,32,,,,,1.6,1.0,1.2*3A
$GPGSV,2,1,08,23,12,195,26,14,28,046,25,20,53,255,24,19,17,174,24*79
$GPGSV,2,2,08,17,27,309,23,24,71,118,23,11,76,220,19,32,84,272,18*7A
$GPGGA,155845.800,4943.51654,N,01323.25231,E,1,9,1.0,314.4,M,46.0,M,,*69
$GPGLL,4943.51654,N,01323.25231,E,155845.800,A*39
$GPRMC,155845.800,A,4943.51654,N,01323.25231,E,15.50,18.2,021210,0.0,E*5F
$GPVTG,18.2,T,18.2,M,15.50,N,28.71,K*43
$GPGGA,155846.800,4943.52124,N,01323.25574,E,1,9,1.0,314.7,M,46.0,M,,*6C
$GPGLL,4943.52124,N,01323.25574,E,155846.800,A*3F
$GPRMC,155846.800,A,4943.52124,N,01323.25574,E,14.60,28.4,021210,0.0,E*5E
$GPVTG,28.4,T,28.4,M,14.60,N,27.04,K*4C
$GPGGA,155847.800,4943.52434,N,01323.25979,E,1,9,1.0,314.7,M,46.0,M,,*68
$GPGLL,4943.52434,N,01323.25979,E,155847.800,A*3B
$GPRMC,155847.800,A,4943.52434,N,01323.25979,E,13.70,35.5,021210,0.0,E*51
$GPVTG,35.5,T,35.5,M,13.70,N,25.37,K*48
$GPGGA,155848.800,4943.52549,N,01323.26616,E,1,9,1.0,314.1,M,46.0,M,,*6F
$GPGLL,4943.52549,N,01323.26616,E,155848.800,A*3A
$GPRMC,155848.800,A,4943.52549,N,01323.26616,E,13.00,59.2,021210,0.0,E*5A
$GPVTG,59.2,T,59.2,M,13.00,N,24.08,K*42
$GPGGA,155849.800,4943.52556,N,01323.27427,E,1,9,1.0,313.9,M,46.0,M,,*6E
$GPGLL,4943.52556,N,01323.27427,E,155849.800,A*34
$GPRMC,155849.800,A,4943.52556,N,01323.27427,E,15.00,81.0,021210,0.0,E*55
$GPVTG,81.0,T,81.0,M,15.00,N,27.78,K*40
$GPGSA,A,3,14,17,19,20,23,24,31,32,,,,,1.6,1.0,1.2*3A
$GPGSV,2,1,08,23,14,195,25,31,13,105,25,32,85,292,22,14,27,046,19*70
$GPGSV,2,2,08,11,75,212,19,24,69,119,19,17,28,307,17,19,15,174,17*74
$GPGGA,155850.800,4943.52519,N,01323.28341,E,1,9,1.0,313.6,M,46.0,M,,*6A
$GPGLL,4943.52519,N,01323.28341,E,155850.800,A*3F
$GPRMC,155850.800,A,4943.52519,N,01323.28341,E,17.20,89.1,021210,0.0,E*57
$GPVTG,89.1,T,89.1,M,17.20,N,31.85,K*45
$GPGGA,155851.800,4943.52516,N,01323.29103,E,1,9,1.0,314.0,M,46.0,M,,*60
$GPGLL,4943.52516,N,01323.29103,E,155851.800,A*34
$GPRMC,155851.800,A,4943.52516,N,01323.29103,E,17.80,88.7,021210,0.0,E*51
$GPVTG,88.7,T,88.7,M,17.80,N,32.97,K*4F
$GPGGA,155853.800,4943.52324,N,01323.31016,E,1,9,1.0,313.4,M,46.0,M,,*6A
$GPGLL,4943.52324,N,01323.31016,E,155853.800,A*3D
$GPRMC,155853.800,A,4943.52324,N,01323.31016,E,20.80,94.4,021210,0.0,E*52
$GPVTG,94.4,T,94.4,M,20.80,N,38.52,K*48
$GPGGA,155854.800,4943.52236,N,01323.32096,E,1,9,1.0,312.7,M,46.0,M,,*66
$GPGLL,4943.52236,N,01323.32096,E,155854.800,A*33
$GPRMC,155854.800,A,4943.52236,N,01323.32096,E,22.70,94.9,021210,0.0,E*5C
$GPVTG,94.9,T,94.9,M,22.70,N,42.04,K*4B
$GPGGA,155855.800,4943.52134,N,01323.33267,E,1,9,1.0,311.7,M,46.0,M,,*68
$GPGLL,4943.52134,N,01323.33267,E,155855.800,A*3E
$GPRMC,155855.800,A,4943.52134,N,01323.33267,E,23.90,94.7,021210,0.0,E*50
$GPVTG,94.7,T,94.7,M,23.90,N,44.26,K*42
$GPGSA,A,3,14,17,19,20,23,24,31,32,,,,,1.6,1.0,1.2*3A
$GPGSV,2,1,08,31,13,105,26,23,14,195,26,20,54,257,25,32,85,293,23*7E
$GPGSV,2,2,08,24,69,119,18,14,27,046,17,17,28,307,16,11,75,212,15*74
$GPGGA,155856.800,4943.52094,N,01323.34386,E,1,9,1.0,311.4,M,46.0,M,,*6A
$GPGLL,4943.52094,N,01323.34386,E,155856.800,A*3F
$GPRMC,155856.800,A,4943.52094,N,01323.34386,E,24.70,94.0,021210,0.0,E*5F
$GPVTG,94.0,T,94.0,M,24.70,N,45.74,K*4D
$GPGGA,155857.800,4943.52044,N,01323.35451,E,1,9,1.0,311.5,M,46.0,M,,*6B
$GPGLL,4943.52044,N,01323.35451,E,155857.800,A*3F
$GPRMC,155857.800,A,4943.52044,N,01323.35451,E,24.90,94.5,021210,0.0,E*54
$GPVTG,94.5,T,94.5,M,24.90,N,46.11,K*43
$GPGGA,155858.800,4943.51982,N,01323.36601,E,1,9,1.0,311.6,M,46.0,M,,*63
$GPGLL,4943.51982,N,01323.36601,E,155858.800,A*34
$GPRMC,155858.800,A,4943.51982,N,01323.36601,E,25.40,94.4,021210,0.0,E*52
$GPVTG,94.4,T,94.4,M,25.40,N,47.04,K*4A
$GPGGA,155859.800,4943.51924,N,01323.37748,E,1,9,1.0,311.7,M,46.0,M,,*62
$GPGLL,4943.51924,N,01323.37748,E,155859.800,A*34
$GPRMC,155859.800,A,4943.51924,N,01323.37748,E,25.50,94.9,021210,0.0,E*5E
$GPVTG,94.9,T,94.9,M,25.50,N,47.23,K*4E
$GPGGA,155900.800,4943.51809,N,01323.38904,E,1,9,1.0,312.1,M,46.0,M,,*6D
$GPGLL,4943.51809,N,01323.38904,E,155900.800,A*3E
$GPRMC,155900.800,A,4943.51809,N,01323.38904,E,25.60,96.3,021210,0.0,E*5F
$GPVTG,96.3,T,96.3,M,25.60,N,47.41,K*49
$GPGSA,A,3,17,19,20,23,24,31,32,,,,,,1.7,1.0,1.3*3F
$GPGSV,2,1,08,23,14,195,27,20,54,257,26,31,13,105,24,32,85,293,23*7E
$GPGSV,2,2,08,14,27,046,21,24,69,119,18,17,28,307,17,11,75,212,15*70
$GPGGA,155901.800,4943.51674,N,01323.40076,E,1,9,1.0,311.2,M,46.0,M,,*6B
$GPGLL,4943.51674,N,01323.40076,E,155901.800,A*38
$GPRMC,155901.800,A,4943.51674,N,01323.40076,E,25.60,96.7,021210,0.0,E*5D
$GPVTG,96.7,T,96.7,M,25.60,N,47.41,K*49
$GPGGA,155902.800,4943.51588,N,01323.41184,E,1,9,1.0,311.3,M,46.0,M,,*64
$GPGLL,4943.51588,N,01323.41184,E,155902.800,A*36
$GPRMC,155902.800,A,4943.51588,N,01323.41184,E,24.70,98.2,021210,0.0,E*58
$GPVTG,98.2,T,98.2,M,24.70,N,45.74,K*4D
$GPGGA,155903.800,4943.51532,N,01323.42219,E,1,9,1.0,311.4,M,46.0,M,,*67
$GPGLL,4943.51532,N,01323.42219,E,155903.800,A*32
$GPRMC,155903.800,A,4943.51532,N,01323.42219,E,24.50,97.9,021210,0.0,E*5A
$GPVTG,97.9,T,97.9,M,24.50,N,45.37,K*48
$GPGGA,155904.800,4943.51444,N,01323.43331,E,1,10,0.9,311.6,M,46.0,M,,*58
$GPGLL,4943.51444,N,01323.43331,E,155904.800,A*3F
$GPRMC,155904.800,A,4943.51444,N,01323.43331,E,24.60,98.8,021210,0.0,E*5A
$GPVTG,98.8,T,98.8,M,24.60,N,45.56,K*4C
$GPGGA,155905.800,4943.51381,N,01323.44302,E,1,10,0.9,311.6,M,46.0,M,,*50
$GPGLL,4943.51381,N,01323.44302,E,155905.800,A*37
$GPRMC,155905.800,A,4943.51381,N,01323.44302,E,24.10,98.5,021210,0.0,E*58
$GPVTG,98.5,T,98.5,M,24.10,N,44.63,K*4C
$GPGSA,A,3,14,17,19,20,23,24,28,31,32,,,,1.3,0.9,1.0*3F
$GPGSV,3,1,09,24,69,119,25,20,54,257,25,19,15,174,25,17,28,307,23*71
$GPGSV,3,2,09,31,13,105,23,28,05,267,22,32,85,295,20,14,27,046,18*73
$GPGGA,155906.800,4943.51248,N,01323.45199,E,1,10,0.9,310.7,M,46.0,M,,*56
$GPGLL,4943.51248,N,01323.45199,E,155906.800,A*31
$GPRMC,155906.800,A,4943.51248,N,01323.45199,E,23.80,102.9,021210,0.0,E*6E
$GPVTG,102.9,T,102.9,M,23.80,N,44.08,K*4F
$GPGGA,155907.800,4943.50997,N,01323.46153,E,1,10,0.9,310.6,M,46.0,M,,*5B
$GPGLL,4943.50997,N,01323.46153,E,155907.800,A*3D
$GPRMC,155907.800,A,4943.50997,N,01323.46153,E,24.20,108.6,021210,0.0,E*6A
$GPVTG,108.6,T,108.6,M,24.20,N,44.82,K*40
$GPGGA,155908.800,4943.50782,N,01323.47158,E,1,10,0.9,310.4,M,46.0,M,,*56
$GPGLL,4943.50782,N,01323.47158,E,155908.800,A*32
$GPRMC,155908.800,A,4943.50782,N,01323.47158,E,25.20,110.8,021210,0.0,E*63
$GPVTG,110.8,T,110.8,M,25.20,N,46.67,K*48
$GPGGA,155909.800,4943.50481,N,01323.48111,E,1,10,0.9,310.5,M,46.0,M,,*54
$GPGLL,4943.50481,N,01323.48111,E,155909.800,A*31
$GPRMC,155909.800,A,4943.50481,N,01323.48111,E,26.40,111.9,021210,0.0,E*65
$GPVTG,111.9,T,111.9,M,26.40,N,48.89,K*43
$GPGGA,155910.800,4943.50142,N,01323.49181,E,1,10,0.9,310.0,M,46.0,M,,*5B
$GPGLL,4943.50142,N,01323.49181,E,155910.800,A*3B
$GPRMC,155910.800,A,4943.50142,N,01323.49181,E,26.60,112.8,021210,0.0,E*6F
$GPVTG,112.8,T,112.8,M,26.60,N,49.26,K*45
$GPGSA,A,3,14,17,19,20,23,24,28,31,32,,,,1.3,0.9,1.0*3F
$GPGSV,3,1,09,17,28,307,28,11,75,210,27,20,54,257,26,32,85,295,26*75
$GPGSV,3,2,09,24,69,119,25,31,13,105,23,19,15,174,22,14,27,046,18*76
$GPGGA,155911.800,4943.49842,N,01323.50299,E,1,10,0.9,310.1,M,46.0,M,,*58
$GPGLL,4943.49842,N,01323.50299,E,155911.800,A*39
$GPRMC,155911.800,A,4943.49842,N,01323.50299,E,28.80,112.3,021210,0.0,E*66
$GPVTG,112.3,T,112.3,M,28.80,N,53.34,K*4D
$GPGGA,155912.800,4943.49554,N,01323.51431,E,1,10,0.9,310.4,M,46.0,M,,*51
$GPGLL,4943.49554,N,01323.51431,E,155912.800,A*35
$GPRMC,155912.800,A,4943.49554,N,01323.51431,E,28.90,112.3,021210,0.0,E*6B
$GPVTG,112.3,T,112.3,M,28.90,N,53.52,K*4C
$GPGGA,155913.800,4943.49226,N,01323.52558,E,1,10,0.9,310.7,M,46.0,M,,*5C
$GPGLL,4943.49226,N,01323.52558,E,155913.800,A*3B
$GPRMC,155913.800,A,4943.49226,N,01323.52558,E,29.00,112.5,021210,0.0,E*6B
$GPVTG,112.5,T,112.5,M,29.00,N,53.71,K*45
$GPGGA,155914.800,4943.48979,N,01323.53736,E,1,10,0.9,311.3,M,46.0,M,,*55
$GPGLL,4943.48979,N,01323.53736,E,155914.800,A*37
$GPRMC,155914.800,A,4943.48979,N,01323.53736,E,28.90,109.5,021210,0.0,E*65
$GPVTG,109.5,T,109.5,M,28.90,N,53.52,K*4C
$GPGGA,155915.800,4943.48716,N,01323.54876,E,1,10,0.9,311.7,M,46.0,M,,*5B
$GPGLL,4943.48716,N,01323.54876,E,155915.800,A*3D
$GPRMC,155915.800,A,4943.48716,N,01323.54876,E,28.90,108.9,021210,0.0,E*62
$GPVTG,108.9,T,108.9,M,28.90,N,53.52,K*4C
$GPGSA,A,3,14,17,19,20,23,24,28,31,32,,,,1.3,0.9,1.0*3F
$GPGSV,3,1,09,23,14,195,26,31,13,105,26,19,15,174,25,17,28,307,25*79
$GPGSV,3,2,09,24,69,119,25,32,85,296,24,11,75,210,24,14,26,046,20*77
$GPGGA,155916.800,4943.48508,N,01323.56129,E,1,10,0.9,312.6,M,46.0,M,,*56
$GPGLL,4943.48508,N,01323.56129,E,155916.800,A*32
$GPRMC,155916.800,A,4943.48508,N,01323.56129,E,29.50,104.2,021210,0.0,E*67
$GPVTG,104.2,T,104.2,M,29.50,N,54.63,K*44
$GPGGA,155917.800,4943.48338,N,01323.57389,E,1,10,0.9,313.1,M,46.0,M,,*5D
$GPGLL,4943.48338,N,01323.57389,E,155917.800,A*3F
$GPRMC,155917.800,A,4943.48338,N,01323.57389,E,29.70,103.5,021210,0.0,E*68
$GPVTG,103.5,T,103.5,M,29.70,N,55.00,K*42
$GPGGA,155918.800,4943.48226,N,01323.58681,E,1,10,0.9,314.4,M,46.0,M,,*5C
$GPGLL,4943.48226,N,01323.58681,E,155918.800,A*3C
$GPRMC,155918.800,A,4943.48226,N,01323.58681,E,30.00,97.9,021210,0.0,E*54
$GPVTG,97.9,T,97.9,M,30.00,N,55.56,K*4E
$GPGGA,155919.800,4943.48131,N,01323.59966,E,1,10,0.9,315.3,M,46.0,M,,*59
$GPGLL,4943.48131,N,01323.59966,E,155919.800,A*3F
$GPRMC,155919.800,A,4943.48131,N,01323.59966,E,30.20,95.6,021210,0.0,E*58
$GPVTG,95.6,T,95.6,M,30.20,N,55.93,K*45
$GPGGA,155921.800,4943.48087,N,01323.62544,E,1,10,0.9,315.9,M,46.0,M,,*50
$GPGLL,4943.48087,N,01323.62544,E,155921.800,A*3C
$GPRMC,155921.800,A,4943.48087,N,01323.62544,E,30.00,91.1,021210,0.0,E*5A
$GPVTG,91.1,T,91.1,M,30.00,N,55.56,K*4E
$GPGSA,A,3,14,17,19,20,23,24,28,31,32,,,,1.3,0.9,1.0*3F
$GPGSV,3,1,09,23,14,195,28,20,55,257,27,32,85,296,27,24,69,119,22*72
$GPGSV,3,2,09,11,75,210,20,14,26,045,19,17,28,307,18,31,13,105,18*76
$GPGGA,155922.800,4943.48141,N,01323.63747,E,1,10,0.9,316.5,M,46.0,M,,*57
$GPGLL,4943.48141,N,01323.63747,E,155922.800,A*34
$GPRMC,155922.800,A,4943.48141,N,01323.63747,E,28.40,87.5,021210,0.0,E*5C
$GPVTG,87.5,T,87.5,M,28.40,N,52.60,K*41
$GPGGA,155923.800,4943.48229,N,01323.65026,E,1,10,0.9,317.0,M,46.0,M,,*59
$GPGLL,4943.48229,N,01323.65026,E,155923.800,A*3E
$GPRMC,155923.800,A,4943.48229,N,01323.65026,E,29.00,85.9,021210,0.0,E*5D
$GPVTG,85.9,T,85.9,M,29.00,N,53.71,K*45
$GPGGA,155924.800,4943.48331,N,01323.66226,E,1,10,0.9,318.0,M,46.0,M,,*58
$GPGLL,4943.48331,N,01323.66226,E,155924.800,A*30
$GPRMC,155924.800,A,4943.48331,N,01323.66226,E,29.00,82.9,021210,0.0,E*54
$GPVTG,82.9,T,82.9,M,29.00,N,53.71,K*45
$GPGGA,155925.800,4943.48491,N,01323.67436,E,1,10,0.9,318.1,M,46.0,M,,*53
$GPGLL,4943.48491,N,01323.67436,E,155925.800,A*3A
$GPRMC,155925.800,A,4943.48491,N,01323.67436,E,29.20,80.0,021210,0.0,E*57
$GPVTG,80.0,T,80.0,M,29.20,N,54.08,K*4E
$GPGGA,155926.800,4943.48658,N,01323.68678,E,1,10,0.9,318.6,M,46.0,M,,*57
$GPGLL,4943.48658,N,01323.68678,E,155926.800,A*39
$GPRMC,155926.800,A,4943.48658,N,01323.68678,E,29.40,78.1,021210,0.0,E*54
$GPVTG,78.1,T,78.1,M,29.40,N,54.45,K*41
$GPGSA,A,3,14,17,19,20,23,24,28,31,32,,,,1.3,0.9,1.0*3F
$GPGSV,3,1,09,20,53,257,25,23,13,195,23,14,27,046,22,24,70,119,20*76
$GPGSV,3,2,09,17,27,309,20,31,12,106,18,19,17,174,18,28,05,268,16*74
$GPGGA,155927.800,4943.48856,N,01323.69868,E,1,10,0.9,318.9,M,46.0,M,,*57
$GPGLL,4943.48856,N,01323.69868,E,155927.800,A*36
$GPRMC,155927.800,A,4943.48856,N,01323.69868,E,29.10,76.8,021210,0.0,E*59
$GPVTG,76.8,T,76.8,M,29.10,N,53.89,K*43
$GPGGA,155928.800,4943.49029,N,01323.70952,E,1,10,0.9,319.0,M,46.0,M,,*51
$GPGLL,4943.49029,N,01323.70952,E,155928.800,A*38
$GPRMC,155928.800,A,4943.49029,N,01323.70952,E,27.40,75.9,021210,0.0,E*5E
$GPVTG,75.9,T,75.9,M,27.40,N,50.74,K*49
$GPGGA,155929.800,4943.49197,N,01323.71981,E,1,10,0.9,319.3,M,46.0,M,,*58
$GPGLL,4943.49197,N,01323.71981,E,155929.800,A*32
$GPRMC,155929.800,A,4943.49197,N,01323.71981,E,24.90,74.4,021210,0.0,E*56
$GPVTG,74.4,T,74.4,M,24.90,N,46.11,K*43
$GPGGA,155930.800,4943.49434,N,01323.72986,E,1,10,0.9,319.3,M,46.0,M,,*58
$GPGLL,4943.49434,N,01323.72986,E,155930.800,A*32
$GPRMC,155930.800,A,4943.49434,N,01323.72986,E,24.90,73.3,021210,0.0,E*56
$GPVTG,73.3,T,73.3,M,24.90,N,46.11,K*43
$GPGGA,155931.800,4943.49551,N,01323.73841,E,1,10,0.9,319.6,M,46.0,M,,*55
$GPGLL,4943.49551,N,01323.73841,E,155931.800,A*3A
$GPRMC,155931.800,A,4943.49551,N,01323.73841,E,22.20,75.2,021210,0.0,E*54
$GPVTG,75.2,T,75.2,M,22.20,N,41.11,K*49
$GPGSA,A,3,14,17,19,20,23,24,28,31,32,,,,1.3,0.9,1.0*3F
$GPGSV,3,1,09,32,84,279,25,17,27,309,24,20,53,257,23,19,17,174,22*72
$GPGSV,3,2,09,11,76,216,20,28,05,268,18,24,70,119,18,14,27,046,17*78
$GPGGA,155932.800,4943.49659,N,01323.74683,E,1,10,0.9,320.1,M,46.0,M,,*57
$GPGLL,4943.49659,N,01323.74683,E,155932.800,A*35
$GPRMC,155932.800,A,4943.49659,N,01323.74683,E,20.10,76.6,021210,0.0,E*5D
$GPVTG,76.6,T,76.6,M,20.10,N,37.23,K*48
$GPGGA,155933.800,4943.49759,N,01323.75389,E,1,10,0.9,320.1,M,46.0,M,,*59
$GPGLL,4943.49759,N,01323.75389,E,155933.800,A*3B
$GPRMC,155933.800,A,4943.49759,N,01323.75389,E,18.30,77.4,021210,0.0,E*59
$GPVTG,77.4,T,77.4,M,18.30,N,33.89,K*45
$GPGGA,155934.800,4943.49847,N,01323.76039,E,1,10,0.9,320.4,M,46.0,M,,*50
$GPGLL,4943.49847,N,01323.76039,E,155934.800,A*37
$GPRMC,155934.800,A,4943.49847,N,01323.76039,E,16.30,77.4,021210,0.0,E*5B
$GPVTG,77.4,T,77.4,M,16.30,N,30.19,K*41
$GPGGA,155935.800,4943.49921,N,01323.76517,E,1,10,0.9,320.6,M,46.0,M,,*5B
$GPGLL,4943.49921,N,01323.76517,E,155935.800,A*3E
$GPRMC,155935.800,A,4943.49921,N,01323.76517,E,12.50,76.7,021210,0.0,E*52
$GPVTG,76.7,T,76.7,M,12.50,N,23.15,K*4D
$GPGGA,155936.800,4943.49996,N,01323.76914,E,1,10,0.9,320.5,M,46.0,M,,*58
$GPGLL,4943.49996,N,01323.76914,E,155936.800,A*3E
$GPRMC,155936.800,A,4943.49996,N,01323.76914,E,10.10,79.5,021210,0.0,E*59
$GPVTG,79.5,T,79.5,M,10.10,N,18.71,K*41
$GPGSA,A,3,14,17,19,20,23,24,28,31,32,,,,1.3,0.9,1.0*3F
$GPGSV,3,1,09,20,53,257,26,17,27,309,25,14,27,046,22,32,84,279,22*7F
$GPGSV,3,2,09,11,76,216,19,19,17,174,17,24,70,119,17,31,12,106,15*7B
$GPGGA,155937.800,4943.50012,N,01323.77161,E,1,10,0.9,321.0,M,46.0,M,,*5B
$GPGLL,4943.50012,N,01323.77161,E,155937.800,A*39
$GPRMC,155937.800,A,4943.50012,N,01323.77161,E,6.70,78.6,021210,0.0,E*6D
$GPVTG,78.6,T,78.6,M,6.70,N,12.41,K*79
$GPGGA,155938.800,4943.50024,N,01323.77534,E,1,10,0.9,321.4,M,46.0,M,,*51
$GPGLL,4943.50024,N,01323.77534,E,155938.800,A*37
$GPRMC,155938.800,A,4943.50024,N,01323.77534,E,7.00,82.7,021210,0.0,E*61
$GPVTG,82.7,T,82.7,M,7.00,N,12.96,K*75
$GPGGA,155939.800,4943.50068,N,01323.77806,E,1,10,0.9,321.6,M,46.0,M,,*56
$GPGLL,4943.50068,N,01323.77806,E,155939.800,A*32
$GPRMC,155939.800,A,4943.50068,N,01323.77806,E,7.20,82.3,021210,0.0,E*62
$GPVTG,82.3,T,82.3,M,7.20,N,13.33,K*79
$GPGGA,155941.800,4943.50153,N,01323.78507,E,1,10,0.9,322.5,M,46.0,M,,*53
$GPGLL,4943.50153,N,01323.78507,E,155941.800,A*37
$GPRMC,155941.800,A,4943.50153,N,01323.78507,E,8.00,67.9,021210,0.0,E*6B
$GPVTG,67.9,T,67.9,M,8.00,N,14.82,K*79
$GPGGA,155942.800,4943.50281,N,01323.78729,E,1,10,0.9,322.7,M,46.0,M,,*50
$GPGLL,4943.50281,N,01323.78729,E,155942.800,A*36
$GPRMC,155942.800,A,4943.50281,N,01323.78729,E,7.60,52.4,021210,0.0,E*68
$GPVTG,52.4,T,52.4,M,7.60,N,14.08,K*72
$GPGSA,A,3,14,17,19,20,23,24,28,31,32,,,,1.3,0.9,1.0*3F
$GPGSV,3,1,09,17,27,309,24,31,12,106,24,32,84,279,24,14,27,046,24*7E
$GPGSV,3,2,09,11,76,216,22,24,70,119,21,23,13,195,19,28,05,268,17*7D
$GPGGA,155943.800,4943.50496,N,01323.78964,E,1,10,0.9,323.0,M,46.0,M,,*50
$GPGLL,4943.50496,N,01323.78964,E,155943.800,A*30
$GPRMC,155943.800,A,4943.50496,N,01323.78964,E,8.20,34.7,021210,0.0,E*66
$GPVTG,34.7,T,34.7,M,8.20,N,15.19,K*78
$GPGGA,155944.800,4943.50709,N,01323.79032,E,1,10,0.9,323.6,M,46.0,M,,*5F
$GPGLL,4943.50709,N,01323.79032,E,155944.800,A*39
$GPRMC,155944.800,A,4943.50709,N,01323.79032,E,8.10,26.2,021210,0.0,E*6A
$GPVTG,26.2,T,26.2,M,8.10,N,15.00,K*73
$GPGGA,155945.800,4943.50859,N,01323.79101,E,1,10,0.9,324.3,M,46.0,M,,*57
$GPGLL,4943.50859,N,01323.79101,E,155945.800,A*33
$GPRMC,155945.800,A,4943.50859,N,01323.79101,E,7.00,18.3,021210,0.0,E*62
$GPVTG,18.3,T,18.3,M,7.00,N,12.96,K*75
$GPGGA,155946.800,4943.51212,N,01323.79189,E,1,10,0.9,324.8,M,46.0,M,,*5B
$GPGLL,4943.51212,N,01323.79189,E,155946.800,A*34
$GPRMC,155946.800,A,4943.51212,N,01323.79189,E,10.10,12.1,021210,0.0,E*5A
$GPVTG,12.1,T,12.1,M,10.10,N,18.71,K*41
$GPGGA,155947.800,4943.51544,N,01323.79191,E,1,10,0.9,325.4,M,46.0,M,,*5A
$GPGLL,4943.51544,N,01323.79191,E,155947.800,A*38
$GPRMC,155947.800,A,4943.51544,N,01323.79191,E,11.70,8.4,021210,0.0,E*6F
$GPVTG,8.4,T,8.4,M,11.70,N,21.67,K*4B
$GPGSA,A,3,14,17,19,20,23,24,28,31,32,,,,1.3,0.9,1.0*3F
$GPGSV,3,1,09,19,17,174,26,32,84,279,25,31,12,106,25,11,76,216,25*7E
$GPGSV,3,2,09,20,53,257,24,17,27,309,22,14,27,046,21,24,70,119,20*71
$GPGGA,155948.800,4943.51953,N,01323.79286,E,1,10,0.9,326.2,M,46.0,M,,*5F
$GPGLL,4943.51953,N,01323.79286,E,155948.800,A*38
$GPRMC,155948.800,A,4943.51953,N,01323.79286,E,12.60,9.4,021210,0.0,E*6C
$GPVTG,9.4,T,9.4,M,12.60,N,23.34,K*4D
$GPGGA,155949.800,4943.52351,N,01323.79424,E,1,10,0.9,326.8,M,46.0,M,,*51
$GPGLL,4943.52351,N,01323.79424,E,155949.800,A*3C
$GPRMC,155949.800,A,4943.52351,N,01323.79424,E,13.20,9.4,021210,0.0,E*6D
$GPVTG,9.4,T,9.4,M,13.20,N,24.45,K*49
$GPGGA,155950.800,4943.52751,N,01323.79478,E,1,10,0.9,326.9,M,46.0,M,,*55
$GPGLL,4943.52751,N,01323.79478,E,155950.800,A*39
$GPRMC,155950.800,A,4943.52751,N,01323.79478,E,13.50,7.4,021210,0.0,E*61
$GPVTG,7.4,T,7.4,M,13.50,N,25.00,K*4E
$GPGGA,155951.800,4943.53119,N,01323.79453,E,1,10,0.9,327.6,M,46.0,M,,*58
$GPGLL,4943.53119,N,01323.79453,E,155951.800,A*3A
$GPRMC,155951.800,A,4943.53119,N,01323.79453,E,13.50,5.3,021210,0.0,E*67
$GPVTG,5.3,T,5.3,M,13.50,N,25.00,K*4E
$GPGGA,155952.800,4943.53534,N,01323.79451,E,1,10,0.9,328.2,M,46.0,M,,*59
$GPGLL,4943.53534,N,01323.79451,E,155952.800,A*30
$GPRMC,155952.800,A,4943.53534,N,01323.79451,E,13.90,3.4,021210,0.0,E*60
$GPVTG,3.4,T,3.4,M,13.90,N,25.74,K*41
$GPGSA,A,3,14,17,19,20,23,24,28,31,32,,,,1.3,0.9,1.0*3F
$GPGSV,3,1,09,20,53,257,25,32,84,279,22,11,76,216,22,17,27,309,22*7D
$GPGSV,3,2,09,24,70,119,21,19,17,174,21,14,27,046,18,31,12,106,15*7C
$GPGGA,155953.800,4943.53948,N,01323.79498,E,1,10,0.9,328.2,M,46.0,M,,*5A
$GPGLL,4943.53948,N,01323.79498,E,155953.800,A*33
$GPRMC,155953.800,A,4943.53948,N,01323.79498,E,14.00,4.0,021210,0.0,E*6E
$GPVTG,4.0,T,4.0,M,14.00,N,25.93,K*46
$GPGGA,155954.800,4943.54321,N,01323.79606,E,1,10,0.9,328.3,M,46.0,M,,*5B
$GPGLL,4943.54321,N,01323.79606,E,155954.800,A*33
$GPRMC,155954.800,A,4943.54321,N,01323.79606,E,14.20,6.7,021210,0.0,E*69
$GPVTG,6.7,T,6.7,M,14.20,N,26.30,K*4E
$GPGGA,155955.800,4943.54688,N,01323.79717,E,1,10,0.9,329.0,M,46.0,M,,*5F
$GPGLL,4943.54688,N,01323.79717,E,155955.800,A*35
$GPRMC,155955.800,A,4943.54688,N,01323.79717,E,13.30,9.6,021210,0.0,E*67
$GPVTG,9.6,T,9.6,M,13.30,N,24.63,K*4C
$GPGGA,155956.800,4943.55098,N,01323.79733,E,1,10,0.9,329.4,M,46.0,M,,*58
$GPGLL,4943.55098,N,01323.79733,E,155956.800,A*36
$GPRMC,155956.800,A,4943.55098,N,01323.79733,E,14.10,8.3,021210,0.0,E*65
$GPVTG,8.3,T,8.3,M,14.10,N,26.11,K*4E
$GPGGA,155957.800,4943.55492,N,01323.79754,E,1,10,0.9,330.0,M,46.0,M,,*5A
$GPGLL,4943.55492,N,01323.79754,E,155957.800,A*38
$GPRMC,155957.800,A,4943.55492,N,01323.79754,E,14.10,5.3,021210,0.0,E*66
$GPVTG,5.3,T,5.3,M,14.10,N,26.11,K*4E
$GPGSA,A,3,14,17,19,20,23,24,28,31,32,,,,1.3,0.9,1.0*3F
$GPGSV,3,1,09,32,84,279,25,20,53,257,24,23,13,195,24,31,12,106,22*78
$GPGSV,3,2,09,17,27,309,22,28,05,268,20,19,17,174,20,14,27,046,19*7D
$GPGGA,155958.800,4943.55877,N,01323.79783,E,1,10,0.9,330.7,M,46.0,M,,*5F
$GPGLL,4943.55877,N,01323.79783,E,155958.800,A*3A
$GPRMC,155958.800,A,4943.55877,N,01323.79783,E,13.10,4.3,021210,0.0,E*62
$GPVTG,4.3,T,4.3,M,13.10,N,24.26,K*4F
$GPGGA,155959.800,4943.56281,N,01323.79873,E,1,10,0.9,331.7,M,46.0,M,,*5F
$GPGLL,4943.56281,N,01323.79873,E,155959.800,A*3B
$GPRMC,155959.800,A,4943.56281,N,01323.79873,E,13.00,5.0,021210,0.0,E*60
$GPVTG,5.0,T,5.0,M,13.00,N,24.08,K*42
$GPGGA,160000.800,4943.56663,N,01323.80006,E,1,10,0.9,331.6,M,46.0,M,,*59
$GPGLL,4943.56663,N,01323.80006,E,160000.800,A*3C
$GPRMC,160000.800,A,4943.56663,N,01323.80006,E,13.30,8.6,021210,0.0,E*6F
$GPVTG,8.6,T,8.6,M,13.30,N,24.63,K*4C
$GPGGA,160001.800,4943.57036,N,01323.79951,E,1,10,0.9,332.4,M,46.0,M,,*53
$GPGLL,4943.57036,N,01323.79951,E,160001.800,A*37
$GPRMC,160001.800,A,4943.57036,N,01323.79951,E,12.90,8.3,021210,0.0,E*6A
$GPVTG,8.3,T,8.3,M,12.90,N,23.89,K*44
$GPGGA,160002.800,4943.57376,N,01323.79959,E,1,10,0.9,333.2,M,46.0,M,,*58
$GPGLL,4943.57376,N,01323.79959,E,160002.800,A*3B
$GPRMC,160002.800,A,4943.57376,N,01323.79959,E,13.50,7.9,021210,0.0,E*6E
$GPVTG,7.9,T,7.9,M,13.50,N,25.00,K*4E
$GPGSA,A,3,14,17,19,20,23,24,28,31,32,,,,1.3,0.9,1.0*3F
$GPGSV,3,1,09,20,53,257,24,17,27,309,24,31,12,106,22,28,05,268,20*78
$GPGSV,3,2,09,24,70,119,18,23,13,195,18,32,84,279,17,14,27,046,16*75
$GPGGA,160003.800,4943.57684,N,01323.80119,E,1,10,0.9,333.5,M,46.0,M,,*5C
$GPGLL,4943.57684,N,01323.80119,E,160003.800,A*38
$GPRMC,160003.800,A,4943.57684,N,01323.80119,E,12.20,12.0,021210,0.0,E*56
$GPVTG,12.0,T,12.0,M,12.20,N,22.59,K*43
$GPGGA,160004.800,4943.58078,N,01323.80303,E,1,10,0.9,333.4,M,46.0,M,,*59
$GPGLL,4943.58078,N,01323.80303,E,160004.800,A*3C
$GPRMC,160004.800,A,4943.58078,N,01323.80303,E,12.00,14.2,021210,0.0,E*54
$GPVTG,14.2,T,14.2,M,12.00,N,22.22,K*4D
$GPGGA,160005.800,4943.58386,N,01323.80516,E,1,10,0.9,333.5,M,46.0,M,,*59
$GPGLL,4943.58386,N,01323.80516,E,160005.800,A*3D
$GPRMC,160005.800,A,4943.58386,N,01323.80516,E,11.60,19.7,021210,0.0,E*58
$GPVTG,19.7,T,19.7,M,11.60,N,21.48,K*47
$GPGGA,160006.800,4943.58798,N,01323.80676,E,1,10,0.9,333.2,M,46.0,M,,*53
$GPGLL,4943.58798,N,01323.80676,E,160006.800,A*30
$GPRMC,160006.800,A,4943.58798,N,01323.80676,E,11.00,23.2,021210,0.0,E*5F
$GPVTG,23.2,T,23.2,M,11.00,N,20.37,K*48
$GPGGA,160008.800,4943.59269,N,01323.81254,E,1,10,1.0,333.7,M,46.0,M,,*5F
$GPGLL,4943.59269,N,01323.81254,E,160008.800,A*31
$GPRMC,160008.800,A,4943.59269,N,01323.81254,E,8.80,34.4,021210,0.0,E*6E
$GPVTG,34.4,T,34.4,M,8.80,N,16.30,K*7A
$GPGSA,A,3,14,17,19,20,23,24,31,32,,,,,1.6,1.0,1.2*3A
$GPGSV,3,1,09,17,27,309,24,14,27,046,24,19,17,174,23,24,70,119,22*7C
$GPGSV,3,2,09,23,13,195,22,20,53,257,20,28,05,268,20,31,12,106,19*76
$GPGGA,160009.800,4943.59491,N,01323.81481,E,1,10,1.0,333.8,M,46.0,M,,*5E
$GPGLL,4943.59491,N,01323.81481,E,160009.800,A*3F
$GPRMC,160009.800,A,4943.59491,N,01323.81481,E,8.50,41.3,021210,0.0,E*68
$GPVTG,41.3,T,41.3,M,8.50,N,15.74,K*74
$GPGGA,160010.800,4943.59656,N,01323.81696,E,1,10,1.0,333.6,M,46.0,M,,*55
$GPGLL,4943.59656,N,01323.81696,E,160010.800,A*3A
$GPRMC,160010.800,A,4943.59656,N,01323.81696,E,8.10,44.2,021210,0.0,E*6D
$GPVTG,44.2,T,44.2,M,8.10,N,15.00,K*73
$GPGGA,160011.800,4943.59816,N,01323.81983,E,1,10,1.0,334.0,M,46.0,M,,*54
$GPGLL,4943.59816,N,01323.81983,E,160011.800,A*3A
$GPRMC,160011.800,A,4943.59816,N,01323.81983,E,7.30,44.5,021210,0.0,E*67
$GPVTG,44.5,T,44.5,M,7.30,N,13.52,K*7F
$GPGGA,160012.800,4943.59942,N,01323.82281,E,1,10,1.0,334.4,M,46.0,M,,*59
$GPGLL,4943.59942,N,01323.82281,E,160012.800,A*33
$GPRMC,160012.800,A,4943.59942,N,01323.82281,E,6.90,45.8,021210,0.0,E*69
$GPVTG,45.8,T,45.8,M,6.90,N,12.78,K*7D
$GPGGA,160013.800,4943.60108,N,01323.82436,E,1,10,1.0,334.3,M,46.0,M,,*59
$GPGLL,4943.60108,N,01323.82436,E,160013.800,A*34
$GPRMC,160013.800,A,4943.60108,N,01323.82436,E,6.40,43.8,021210,0.0,E*65
$GPVTG,43.8,T,43.8,M,6.40,N,11.85,K*71
$GPGSA,A,3,14,17,19,20,23,24,31,32,,,,,1.6,1.0,1.2*3A
$GPGSV,3,1,09,24,70,119,30,31,12,106,27,32,84,279,25,23,13,195,21*71
$GPGSV,3,2,09,28,05,268,20,11,76,216,19,19,17,174,19,14,27,046,18*73
$GPGGA,160014.800,4943.60134,N,01323.82743,E,1,10,1.0,334.0,M,46.0,M,,*53
$GPGLL,4943.60134,N,01323.82743,E,160014.800,A*3D
$GPRMC,160014.800,A,4943.60134,N,01323.82743,E,4.60,53.8,021210,0.0,E*6D
$GPVTG,53.8,T,53.8,M,4.60,N,8.52,K*43
$GPGGA,160015.800,4943.60206,N,01323.83019,E,1,10,1.0,333.6,M,46.0,M,,*58
$GPGLL,4943.60206,N,01323.83019,E,160015.800,A*37
$GPRMC,160015.800,A,4943.60206,N,01323.83019,E,4.10,56.0,021210,0.0,E*6D
$GPVTG,56.0,T,56.0,M,4.10,N,7.59,K*40
$GPGGA,160016.800,4943.60244,N,01323.83149,E,1,10,1.0,334.4,M,46.0,M,,*5C
$GPGLL,4943.60244,N,01323.83149,E,160016.800,A*36
$GPRMC,160016.800,A,4943.60244,N,01323.83149,E,2.70,56.9,021210,0.0,E*65
$GPVTG,56.9,T,56.9,M,2.70,N,5.00,K*4E
$GPGGA,160017.800,4943.60369,N,01323.83284,E,1,10,1.0,334.6,M,46.0,M,,*53
$GPGLL,4943.60369,N,01323.83284,E,160017.800,A*3B
$GPRMC,160017.800,A,4943.60369,N,01323.83284,E,2.20,54.3,021210,0.0,E*65
$GPVTG,54.3,T,54.3,M,2.20,N,4.07,K*4D
$GPGGA,160018.800,4943.60416,N,01323.83348,E,1,10,1.0,334.9,M,46.0,M,,*5D
$GPGLL,4943.60416,N,01323.83348,E,160018.800,A*3A
$GPRMC,160018.800,A,4943.60416,N,01323.83348,E,0.00,54.3,021210,0.0,E*64
$GPVTG,54.3,T,54.3,M,0.00,N,0.00,K*4E
$GPGSA,A,3,14,17,19,20,23,24,31,32,,,,,1.6,1.0,1.2*3A
$GPGSV,3,1,09,24,70,119,30,31,12,106,24,19,17,174,21,20,53,257,20*70
$GPGSV,3,2,09,32,84,279,20,28,05,268,20,11,76,216,19,14,27,046,19*75
$GPGGA,160019.800,4943.60423,N,01323.83353,E,1,10,1.0,334.9,M,46.0,M,,*50
$GPGLL,4943.60423,N,01323.83353,E,160019.800,A*37
$GPRMC,160019.800,A,4943.60423,N,01323.83353,E,0.00,54.3,021210,0.0,E*69
$GPVTG,54.3,T,54.3,M,0.00,N,0.00,K*4E
$GPGGA,160020.800,4943.60424,N,01323.83379,E,1,10,1.0,334.9,M,46.0,M,,*55
$GPGLL,4943.60424,N,01323.83379,E,160020.800,A*32
$GPRMC,160020.800,A,4943.60424,N,01323.83379,E,0.00,54.3,021210,0.0,E*6C
$GPVTG,54.3,T,54.3,M,0.00,N,0.00,K*4E
$GPGGA,160021.800,4943.60453,N,01323.83384,E,1,9,1.0,335.0,M,46.0,M,,*66
$GPGLL,4943.60453,N,01323.83384,E,160021.800,A*31
$GPRMC,160021.800,A,4943.60453,N,01323.83384,E,0.00,54.3,021210,0.0,E*6F
$GPVTG,54.3,T,54.3,M,0.00,N,0.00,K*4E
$GPGGA,160022.800,4943.60473,N,01323.83421,E,1,9,1.0,335.2,M,46.0,M,,*6D
$GPGLL,4943.60473,N,01323.83421,E,160022.800,A*38
$GPRMC,160022.800,A,4943.60473,N,01323.83421,E,0.00,54.3,021210,0.0,E*66
$GPVTG,54.3,T,54.3,M,0.00,N,0.00,K*4E
$GPGGA,160023.800,4943.60502,N,01323.83446,E,1,9,1.0,335.3,M,46.0,M,,*6B
$GPGLL,4943.60502,N,01323.83446,E,160023.800,A*3F
$GPRMC,160023.800,A,4943.60502,N,01323.83446,E,0.00,54.3,021210,0.0,E*61
$GPVTG,54.3,T,54.3,M,0.00,N,0.00,K*4E
$GPGSA,A,3,14,17,19,20,23,24,31,32,,,,,1.6,1.0,1.2*3A
$GPGSV,2,1,08,24,70,119,30,31,12,106,26,19,17,174,21,32,84,279,21*76
$GPGSV,2,2,08,20,53,257,20,11,76,216,19,23,13,195,17,14,27,046,15*75
$GPGGA,160024.800,4943.60526,N,01323.83441,E,1,9,1.0,335.0,M,46.0,M,,*6E
$GPGLL,4943.60526,N,01323.83441,E,160024.800,A*39
$GPRMC,160024.800,A,4943.60526,N,01323.83441,E,0.00,54.3,021210,0.0,E*67
$GPVTG,54.3,T,54.3,M,0.00,N,0.00,K*4E
$GPGGA,160025.800,4943.60542,N,01323.83452,E,1,9,1.0,334.9,M,46.0,M,,*67
$GPGLL,4943.60542,N,01323.83452,E,160025.800,A*38
$GPRMC,160025.800,A,4943.60542,N,01323.83452,E,0.00,54.3,021210,0.0,E*66
$GPVTG,54.3,T,54.3,M,0.00,N,0.00,K*4E
$GPGGA,160026.800,4943.60569,N,01323.83471,E,1,9,1.0,334.8,M,46.0,M,,*6D
$GPGLL,4943.60569,N,01323.83471,E,160026.800,A*33
$GPRMC,160026.800,A,4943.60569,N,01323.83471,E,0.00,54.3,021210,0.0,E*6D
$GPVTG,54.3,T,54.3,M,0.00,N,0.00,K*4E
$GPGGA,160027.800,4943.60579,N,01323.83474,E,1,9,1.0,334.7,M,46.0,M,,*67
$GPGLL,4943.60579,N,01323.83474,E,160027.800,A*36
$GPRMC,160027.800,A,4943.60579,N,01323.83474,E,0.00,54.3,021210,0.0,E*68
$GPVTG,54.3,T,54.3,M,0.00,N,0.00,K*4E
$GPGGA,160028.800,4943.60579,N,01323.83484,E,1,9,1.0,334.7,M,46.0,M,,*67
$GPGLL,4943.60579,N,01323.83484,E,160028.800,A*36
$GPRMC,160028.800,A,4943.60579,N,01323.83484,E,0.00,54.3,021210,0.0,E*68
$GPVTG,54.3,T,54.3,M,0.00,N,0.00,K*4E
$GPGSA,A,3,14,17,19,20,23,24,31,32,,,,,1.6,1.0,1.2*3A
$GPGSV,2,1,08,24,70,119,30,20,53,257,24,31,12,106,24,19,17,174,24*71
$GPGSV,2,2,08,32,84,279,22,11,76,216,20,23,13,195,16,14,27,046,15*79
$GPGGA,160029.800,4943.60581,N,01323.83488,E,1,9,1.0,334.8,M,46.0,M,,*62
$GPGLL,4943.60581,N,01323.83488,E,160029.800,A*3C
$GPRMC,160029.800,A,4943.60581,N,01323.83488,E,0.00,54.3,021210,0.0,E*62
$GPVTG,54.3,T,54.3,M,0.00,N,0.00,K*4E
$GPGGA,160030.800,4943.60581,N,01323.83489,E,1,9,1.0,334.8,M,46.0,M,,*6B
$GPGLL,4943.60581,N,01323.83489,E,160030.800,A*35
$GPRMC,160030.800,A,4943.60581,N,01323.83489,E,0.00,54.3,021210,0.0,E*6B
$GPVTG,54.3,T,54.3,M,0.00,N,0.00,K*4E
$GPGGA,160031.800,4943.60581,N,01323.83489,E,1,9,1.0,334.8,M,46.0,M,,*6A
$GPGLL,4943.60581,N,01323.83489,E,160031.800,A*34
$GPRMC,160031.800,A,4943.60581,N,01323.83489,E,0.00,54.3,021210,0.0,E*6A
$GPVTG,54.3,T,54.3,M,0.00,N,0.00,K*4E
$GPGGA,160032.800,4943.60581,N,01323.83489,E,1,9,1.0,334.8,M,46.0,M,,*69
$GPGLL,4943.60581,N,01323.83489,E,160032.800,A*37
$GPRMC,160032.800,A,4943.60581,N,01323.83489,E,0.00,54.3,021210,0.0,E*69
$GPVTG,54.3,T,54.3,M,0.00,N,0.00,K*4E
$GPGGA,160033.800,4943.60581,N,01323.83488,E,1,9,1.0,334.7,M,46.0,M,,*66
$GPGLL,4943.60581,N,01323.83488,E,160033.800,A*37
$GPRMC,160033.800,A,4943.60581,N,01323.83488,E,0.00,54.3,021210,0.0,E*69
$GPVTG,54.3,T,54.3,M,0.00,N,0.00,K*4E
$GPGSA,A,3,14,17,19,20,23,24,31,32,,,,,1.7,1.1,1.3*3B
$GPGSV,2,1,08,17,28,309,30,20,55,258,23,19,15,174,23,31,13,105,23*71
$GPGSV,2,2,08,32,85,306,22,11,75,208,19,14,26,045,17,23,14,195,16*70
$GPGGA,160034.800,4943.60579,N,01323.83484,E,1,9,1.1,334.8,M,46.0,M,,*64
$GPGLL,4943.60579,N,01323.83484,E,160034.800,A*3B
$GPRMC,160034.800,A,4943.60579,N,01323.83484,E,0.00,54.3,021210,0.0,E*65
$GPVTG,54.3,T,54.3,M,0.00,N,0.00,K*4E
$GPGGA,160035.800,4943.60579,N,01323.83484,E,1,9,1.0,334.8,M,46.0,M,,*64
$GPGLL,4943.60579,N,01323.83484,E,160035.800,A*3A
$GPRMC,160035.800,A,4943.60579,N,01323.83484,E,0.00,54.3,021210,0.0,E*64
$GPVTG,54.3,T,54.3,M,0.00,N,0.00,K*4E
$GPGGA,160037.800,4943.60583,N,01323.83489,E,1,9,1.0,334.8,M,46.0,M,,*6E
$GPGLL,4943.60583,N,01323.83489,E,160037.800,A*30
$GPRMC,160037.800,A,4943.60583,N,01323.83489,E,0.00,54.3,021210,0.0,E*6E
$GPVTG,54.3,T,54.3,M,0.00,N,0.00,K*4E
$GPGGA,160038.800,4943.60583,N,01323.83489,E,1,9,1.0,334.8,M,46.0,M,,*61
$GPGLL,4943.60583,N,01323.83489,E,160038.800,A*3F
$GPRMC,160038.800,A,4943.60583,N,01323.83489,E,0.00,54.3,021210,0.0,E*61
$GPVTG,54.3,T,54.3,M,0.00,N,0.00,K*4E
$GPGGA,160039.800,4943.60584,N,01323.83491,E,1,9,1.0,334.8,M,46.0,M,,*6E
$GPGLL,4943.60584,N,01323.83491,E,160039.800,A*30
$GPRMC,160039.800,A,4943.60584,N,01323.83491,E,0.00,54.3,021210,0.0,E*6E
$GPVTG,54.3,T,54.3,M,0.00,N,0.00,K*4E
$GPGSA,A,3,14,17,19,20,23,24,31,32,,,,,1.7,1.1,1.3*3B
$GPGSV,2,1,08,17,28,309,29,31,13,105,24,19,15,174,24,32,85,306,20*7E
$GPGSV,2,2,08,11,75,208,20,20,55,258,20,14,26,045,18,23,14,195,13*76
$GPGGA,160040.800,4943.60584,N,01323.83489,E,1,9,1.1,334.8,M,46.0,M,,*68
$GPGLL,4943.60584,N,01323.83489,E,160040.800,A*37
$GPRMC,160040.800,A,4943.60584,N,01323.83489,E,0.00,54.3,021210,0.0,E*69
$GPVTG,54.3,T,54.3,M,0.00,N,0.00,K*4E
$GPGGA,160041.800,4943.60583,N,01323.83489,E,1,9,1.1,334.8,M,46.0,M,,*6E
$GPGLL,4943.60583,N,01323.83489,E,160041.800,A*31
$GPRMC,160041.800,A,4943.60583,N,01323.83489,E,0.00,54.3,021210,0.0,E*6F
$GPVTG,54.3,T,54.3,M,0.00,N,0.00,K*4E
$GPGGA,160042.800,4943.60583,N,01323.83488,E,1,9,1.0,334.8,M,46.0,M,,*6D
$GPGLL,4943.60583,N,01323.83488,E,160042.800,A*33
$GPRMC,160042.800,A,4943.60583,N,01323.83488,E,0.00,54.3,021210,0.0,E*6D
$GPVTG,54.3,T,54.3,M,0.00,N,0.00,K*4E
$GPGGA,160043.800,4943.60583,N,01323.83489,E,1,9,1.0,334.8,M,46.0,M,,*6D
$GPGLL,4943.60583,N,01323.83489,E,160043.800,A*33
$GPRMC,160043.800,A,4943.60583,N,01323.83489,E,0.00,54.3,021210,0.0,E*6D
$GPVTG,54.3,T,54.3,M,0.00,N,0.00,K*4E
$GPGGA,160044.800,4943.60583,N,01323.83488,E,1,9,1.0,334.8,M,46.0,M,,*6B
$GPGLL,4943.60583,N,01323.83488,E,160044.800,A*35
$GPRMC,160044.800,A,4943.60583,N,01323.83488,E,0.00,54.3,021210,0.0,E*6B
$GPVTG,54.3,T,54.3,M,0.00,N,0.00,K*4E
$GPGSA,A,3,14,17,19,20,23,24,31,32,,,,,1.6,1.0,1.2*3A
$GPGSV,2,1,08,17,28,309,28,31,13,105,26,19,15,174,24,20,55,258,23*7A
$GPGSV,2,2,08,32,85,306,20,11,75,208,19,14,26,045,18,23,14,195,14*7F
$GPGGA,160045.800,4943.60583,N,01323.83489,E,1,9,1.0,334.8,M,46.0,M,,*6B
$GPGLL,4943.60583,N,01323.83489,E,160045.800,A*35
$GPRMC,160045.800,A,4943.60583,N,01323.83489,E,0.00,54.3,021210,0.0,E*6B
$GPVTG,54.3,T,54.3,M,0.00,N,0.00,K*4E
$GPGGA,160046.800,4943.60584,N,01323.83489,E,1,9,1.0,334.8,M,46.0,M,,*6F
$GPGLL,4943.60584,N,01323.83489,E,160046.800,A*31
$GPRMC,160046.800,A,4943.60584,N,01323.83489,E,0.00,54.3,021210,0.0,E*6F
$GPVTG,54.3,T,54.3,M,0.00,N,0.00,K*4E
$GPGGA,160047.800,4943.60584,N,01323.83489,E,1,9,1.0,334.8,M,46.0,M,,*6E
$GPGLL,4943.60584,N,01323.83489,E,160047.800,A*30
$GPRMC,160047.800,A,4943.60584,N,01323.83489,E,0.00,54.3,021210,0.0,E*6E
$GPVTG,54.3,T,54.3,M,0.00,N,0.00,K*4E
$GPGGA,160048.800,4943.60583,N,01323.83489,E,1,9,1.0,334.8,M,46.0,M,,*66
$GPGLL,4943.60583,N,01323.83489,E,160048.800,A*38
$GPRMC,160048.800,A,4943.60583,N,01323.83489,E,0.00,54.3,021210,0.0,E*66
$GPVTG,54.3,T,54.3,M,0.00,N,0.00,K*4E
$GPGGA,160049.800,4943.60583,N,01323.83488,E,1,9,1.0,334.7,M,46.0,M,,*69
$GPGLL,4943.60583,N,01323.83488,E,160049.800,A*38
$GPRMC,160049.800,A,4943.60583,N,01323.83488,E,0.00,54.3,021210,0.0,E*66
$GPVTG,54.3,T,54.3,M,0.00,N,0.00,K*4E
$GPGSA,A,3,14,17,19,20,23,24,31,32,,,,,1.6,1.0,1.2*3A
$GPGSV,2,1,08,17,29,307,28,31,13,105,27,19,15,174,24,32,85,306,23*70
$GPGSV,2,2,08,23,14,195,20,11,75,208,20,14,26,045,19,20,55,258,18*7C
$GPGGA,160050.800,4943.60579,N,01323.83484,E,1,9,1.0,334.7,M,46.0,M,,*68
$GPGLL,4943.60579,N,01323.83484,E,160050.800,A*39
$GPRMC,160050.800,A,4943.60579,N,01323.83484,E,0.00,54.3,021210,0.0,E*67
$GPVTG,54.3,T,54.3,M,0.00,N,0.00,K*4E
$GPGGA,160051.800,4943.60579,N,01323.83486,E,1,9,1.0,334.7,M,46.0,M,,*6B
$GPGLL,4943.60579,N,01323.83486,E,160051.800,A*3A
$GPRMC,160051.800,A,4943.60579,N,01323.83486,E,0.00,54.3,021210,0.0,E*64
$GPVTG,54.3,T,54.3,M,0.00,N,0.00,K*4E
$GPGGA,160052.800,4943.60581,N,01323.83486,E,1,9,1.0,334.7,M,46.0,M,,*6F
$GPGLL,4943.60581,N,01323.83486,E,160052.800,A*3E
$GPRMC,160052.800,A,4943.60581,N,01323.83486,E,0.00,54.3,021210,0.0,E*60
$GPVTG,54.3,T,54.3,M,0.00,N,0.00,K*4E
$GPGGA,160053.800,4943.60581,N,01323.83486,E,1,9,1.0,334.7,M,46.0,M,,*6E
$GPGLL,4943.60581,N,01323.83486,E,160053.800,A*3F
$GPRMC,160053.800,A,4943.60581,N,01323.83486,E,0.00,54.3,021210,0.0,E*61
$GPVTG,54.3,T,54.3,M,0.00,N,0.00,K*4E
$GPGGA,160054.800,4943.60581,N,01323.83486,E,1,9,1.0,334.7,M,46.0,M,,*69
$GPGLL,4943.60581,N,01323.83486,E,160054.800,A*38
$GPRMC,160054.800,A,4943.60581,N,01323.83486,E,0.00,54.3,021210,0.0,E*66
$GPVTG,54.3,T,54.3,M,0.00,N,0.00,K*4E
$GPGSA,A,3,14,17,19,20,23,24,31,32,,,,,1.6,1.0,1.2*3A
$GPGSV,2,1,08,24,68,120,25,31,13,105,21,19,15,174,21,32,85,306,20*7F
$GPGSV,2,2,08,14,26,045,19,23,14,195,19,20,55,258,19,11,75,208,17*73
$GPGGA,160055.800,4943.60644,N,01323.83664,E,1,9,1.0,335.1,M,46.0,M,,*6B
$GPGLL,4943.60644,N,01323.83664,E,160055.800,A*3D
$GPRMC,160055.800,A,4943.60644,N,01323.83664,E,2.20,58.5,021210,0.0,E*69
$GPVTG,58.5,T,58.5,M,2.20,N,4.07,K*4D
$GPGGA,160056.800,4943.60701,N,01323.83881,E,1,9,1.0,335.2,M,46.0,M,,*6E
$GPGLL,4943.60701,N,01323.83881,E,160056.800,A*3B
$GPRMC,160056.800,A,4943.60701,N,01323.83881,E,2.90,67.1,021210,0.0,E*6C
$GPVTG,67.1,T,67.1,M,2.90,N,5.37,K*44
$GPGGA,160057.800,4943.60729,N,01323.84098,E,1,9,1.0,336.0,M,46.0,M,,*63
$GPGLL,4943.60729,N,01323.84098,E,160057.800,A*37
$GPRMC,160057.800,A,4943.60729,N,01323.84098,E,3.80,67.0,021210,0.0,E*61
$GPVTG,67.0,T,67.0,M,3.80,N,7.04,K*46
$GPGGA,160058.800,4943.60869,N,01323.84321,E,1,9,1.0,335.8,M,46.0,M,,*6D
$GPGLL,4943.60869,N,01323.84321,E,160058.800,A*32
$GPRMC,160058.800,A,4943.60869,N,01323.84321,E,4.30,57.5,021210,0.0,E*6E
$GPVTG,57.5,T,57.5,M,4.30,N,7.96,K*41
$GPGGA,160059.800,4943.61001,N,01323.84536,E,1,9,1.0,335.5,M,46.0,M,,*66
$GPGLL,4943.61001,N,01323.84536,E,160059.800,A*34
$GPRMC,160059.800,A,4943.61001,N,01323.84536,E,4.50,55.6,021210,0.0,E*6F
$GPVTG,55.6,T,55.6,M,4.50,N,8.33,K*47
$GPGSA,A,3,14,17,19,20,23,24,31,32,,,,,1.6,1.0,1.2*3A
$GPGSV,2,1,08,20,55,258,25,17,29,307,22,11,75,208,22,24,68,120,20*70
$GPGSV,2,2,08,19,15,174,20,14,26,045,19,31,13,105,17,23,14,195,16*79
$GPGGA,160101.800,4943.61419,N,01323.84866,E,1,9,1.0,335.4,M,46.0,M,,*6E
$GPGLL,4943.61419,N,01323.84866,E,160101.800,A*3D
$GPRMC,160101.800,A,4943.61419,N,01323.84866,E,5.90,33.0,021210,0.0,E*6D
$GPVTG,33.0,T,33.0,M,5.90,N,10.93,K*79
$GPGGA,160102.800,4943.61659,N,01323.84978,E,1,9,1.0,335.7,M,46.0,M,,*66
$GPGLL,4943.61659,N,01323.84978,E,160102.800,A*36
$GPRMC,160102.800,A,4943.61659,N,01323.84978,E,6.30,19.5,021210,0.0,E*62
$GPVTG,19.5,T,19.5,M,6.30,N,11.67,K*7A
$GPGGA,160103.800,4943.61982,N,01323.84764,E,1,9,1.0,335.5,M,46.0,M,,*6F
$GPGLL,4943.61982,N,01323.84764,E,160103.800,A*3D
$GPRMC,160103.800,A,4943.61982,N,01323.84764,E,8.00,354.8,021210,0.0,E*53
$GPVTG,354.8,T,354.8,M,8.00,N,14.82,K*79
$GPGGA,160104.800,4943.62139,N,01323.84668,E,1,9,1.0,335.0,M,46.0,M,,*6B
$GPGLL,4943.62139,N,01323.84668,E,160104.800,A*3C
$GPRMC,160104.800,A,4943.62139,N,01323.84668,E,7.80,347.8,021210,0.0,E*57
$GPVTG,347.8,T,347.8,M,7.80,N,14.45,K*75
$GPGGA,160105.800,4943.62346,N,01323.84586,E,1,9,1.0,335.1,M,46.0,M,,*62
$GPGLL,4943.62346,N,01323.84586,E,160105.800,A*34
$GPRMC,160105.800,A,4943.62346,N,01323.84586,E,6.70,341.0,021210,0.0,E*5F
$GPVTG,341.0,T,341.0,M,6.70,N,12.41,K*79
$GPGSA,A,3,14,17,19,20,23,24,31,32,,,,,1.6,1.0,1.2*3A
$GPGSV,2,1,08,32,85,288,26,24,68,120,26,14,27,046,25,11,76,213,25*74
$GPGSV,2,2,08,17,29,307,19,31,12,105,19,19,16,174,19,20,54,257,16*7C
$GPGGA,160106.800,4943.62503,N,01323.84343,E,1,9,1.0,335.6,M,46.0,M,,*6E
$GPGLL,4943.62503,N,01323.84343,E,160106.800,A*3F
$GPRMC,160106.800,A,4943.62503,N,01323.84343,E,6.70,328.1,021210,0.0,E*5A
$GPVTG,328.1,T,328.1,M,6.70,N,12.41,K*79
$GPGGA,160107.800,4943.62729,N,01323.84214,E,1,9,1.0,336.7,M,46.0,M,,*64
$GPGLL,4943.62729,N,01323.84214,E,160107.800,A*37
$GPRMC,160107.800,A,4943.62729,N,01323.84214,E,6.70,328.3,021210,0.0,E*50
$GPVTG,328.3,T,328.3,M,6.70,N,12.41,K*79
$GPGGA,160108.800,4943.62881,N,01323.84054,E,1,9,1.0,336.5,M,46.0,M,,*62
$GPGLL,4943.62881,N,01323.84054,E,160108.800,A*33
$GPRMC,160108.800,A,4943.62881,N,01323.84054,E,6.60,326.8,021210,0.0,E*50
$GPVTG,326.8,T,326.8,M,6.60,N,12.22,K*7D
$GPGGA,160109.800,4943.63046,N,01323.83926,E,1,9,1.0,336.7,M,46.0,M,,*68
$GPGLL,4943.63046,N,01323.83926,E,160109.800,A*3B
$GPRMC,160109.800,A,4943.63046,N,01323.83926,E,6.60,326.3,021210,0.0,E*53
$GPVTG,326.3,T,326.3,M,6.60,N,12.22,K*7D
$GPGGA,160110.800,4943.63208,N,01323.83801,E,1,9,1.0,336.6,M,46.0,M,,*6D
$GPGLL,4943.63208,N,01323.83801,E,160110.800,A*3F
$GPRMC,160110.800,A,4943.63208,N,01323.83801,E,6.50,329.0,021210,0.0,E*58
$GPVTG,329.0,T,329.0,M,6.50,N,12.04,K*7A
$GPGSA,A,3,14,17,19,20,23,24,28,31,32,,,,1.3,0.9,1.0*3F
$GPGSV,3,1,09,11,75,208,26,24,68,120,26,23,15,195,22,14,26,045,19*71
$GPGSV,3,2,09,20,55,258,16,19,14,174,16,17,29,307,16,28,04,267,13*72
$GPGGA,160111.800,4943.63372,N,01323.83654,E,1,10,0.9,336.6,M,46.0,M,,*5E
$GPGLL,4943.63372,N,01323.83654,E,160111.800,A*3C
$GPRMC,160111.800,A,4943.63372,N,01323.83654,E,6.70,327.9,021210,0.0,E*5E
$GPVTG,327.9,T,327.9,M,6.70,N,12.41,K*79
$GPGGA,160112.800,4943.63574,N,01323.83401,E,1,10,0.9,337.1,M,46.0,M,,*59
$GPGLL,4943.63574,N,01323.83401,E,160112.800,A*3D
$GPRMC,160112.800,A,4943.63574,N,01323.83401,E,7.60,326.6,021210,0.0,E*51
$GPVTG,326.6,T,326.6,M,7.60,N,14.08,K*72
$GPGGA,160113.800,4943.63808,N,01323.83154,E,1,10,0.9,337.4,M,46.0,M,,*5E
$GPGLL,4943.63808,N,01323.83154,E,160113.800,A*3F
$GPRMC,160113.800,A,4943.63808,N,01323.83154,E,8.80,328.9,021210,0.0,E*53
$GPVTG,328.9,T,328.9,M,8.80,N,16.30,K*7A
$GPGGA,160114.800,4943.64111,N,01323.82978,E,1,10,0.9,338.3,M,46.0,M,,*50
$GPGLL,4943.64111,N,01323.82978,E,160114.800,A*39
$GPRMC,160114.800,A,4943.64111,N,01323.82978,E,9.30,331.3,021210,0.0,E*5D
$GPVTG,331.3,T,331.3,M,9.30,N,17.22,K*72
$GPGGA,160115.800,4943.64454,N,01323.82793,E,1,10,0.9,338.6,M,46.0,M,,*5B
$GPGLL,4943.64454,N,01323.82793,E,160115.800,A*37
$GPRMC,160115.800,A,4943.64454,N,01323.82793,E,10.40,335.5,021210,0.0,E*6E
$GPVTG,335.5,T,335.5,M,10.40,N,19.26,K*47
$GPGSA,A,3,14,17,19,20,23,24,28,31,32,,,,1.6,1.0,1.2*30
$GPGSV,3,1,09,11,75,208,27,24,68,120,26,31,13,105,22,23,15,195,21*7F
$GPGSV,3,2,09,14,26,045,20,20,55,258,20,19,14,174,19,17,29,307,15*76
$GPGGA,160116.800,4943.64762,N,01323.82551,E,1,10,1.0,338.8,M,46.0,M,,*54
$GPGLL,4943.64762,N,01323.82551,E,160116.800,A*3E
$GPRMC,160116.800,A,4943.64762,N,01323.82551,E,11.90,335.4,021210,0.0,E*6A
$GPVTG,335.4,T,335.4,M,11.90,N,22.04,K*43
$GPGGA,160117.800,4943.65091,N,01323.82149,E,1,10,1.0,338.8,M,46.0,M,,*52
$GPGLL,4943.65091,N,01323.82149,E,160117.800,A*38
$GPRMC,160117.800,A,4943.65091,N,01323.82149,E,13.70,331.2,021210,0.0,E*62
$GPVTG,331.2,T,331.2,M,13.70,N,25.37,K*48
$GPGGA,160118.800,4943.65498,N,01323.81866,E,1,10,1.0,339.2,M,46.0,M,,*5C
$GPGLL,4943.65498,N,01323.81866,E,160118.800,A*3D
$GPRMC,160118.800,A,4943.65498,N,01323.81866,E,14.80,330.7,021210,0.0,E*6B
$GPVTG,330.7,T,330.7,M,14.80,N,27.41,K*43
$GPGGA,160119.800,4943.65844,N,01323.81569,E,1,10,1.0,339.1,M,46.0,M,,*51
$GPGLL,4943.65844,N,01323.81569,E,160119.800,A*33
$GPRMC,160119.800,A,4943.65844,N,01323.81569,E,14.80,330.3,021210,0.0,E*61
$GPVTG,330.3,T,330.3,M,14.80,N,27.41,K*43
$GPGGA,160120.800,4943.66268,N,01323.81237,E,1,10,1.0,339.8,M,46.0,M,,*59
$GPGLL,4943.66268,N,01323.81237,E,160120.800,A*32
$GPRMC,160120.800,A,4943.66268,N,01323.81237,E,15.60,328.4,021210,0.0,E*61
$GPVTG,328.4,T,328.4,M,15.60,N,28.89,K*47
$GPGSA,A,3,14,17,19,20,23,24,31,32,,,,,1.6,1.0,1.2*3A
$GPGSV,3,1,09,32,86,310,26,11,75,208,26,31,13,105,25,23,15,195,23*7D
$GPGSV,3,2,09,19,14,174,20,20,55,258,18,17,29,307,16,14,26,045,14*73
$GPGGA,160121.800,4943.66666,N,01323.80929,E,1,10,1.0,340.3,M,46.0,M,,*52
$GPGLL,4943.66666,N,01323.80929,E,160121.800,A*3C
$GPRMC,160121.800,A,4943.66666,N,01323.80929,E,15.10,328.2,021210,0.0,E*6E
$GPVTG,328.2,T,328.2,M,15.10,N,27.97,K*40
$GPGGA,160122.800,4943.67166,N,01323.80497,E,1,10,1.0,340.4,M,46.0,M,,*58
$GPGLL,4943.67166,N,01323.80497,E,160122.800,A*31
$GPRMC,160122.800,A,4943.67166,N,01323.80497,E,16.30,329.7,021210,0.0,E*66
$GPVTG,329.7,T,329.7,M,16.30,N,30.19,K*41
$GPGGA,160124.800,4943.67983,N,01323.79631,E,1,10,1.0,340.8,M,46.0,M,,*59
$GPGLL,4943.67983,N,01323.79631,E,160124.800,A*3C
$GPRMC,160124.800,A,4943.67983,N,01323.79631,E,17.50,325.8,021210,0.0,E*6F
$GPVTG,325.8,T,325.8,M,17.50,N,32.41,K*49
$GPGGA,160125.800,4943.68446,N,01323.79134,E,1,10,1.0,341.3,M,46.0,M,,*5B
$GPGLL,4943.68446,N,01323.79134,E,160125.800,A*34
$GPRMC,160125.800,A,4943.68446,N,01323.79134,E,18.00,325.4,021210,0.0,E*61
$GPVTG,325.4,T,325.4,M,18.00,N,33.34,K*40
$GPGGA,160126.800,4943.69002,N,01323.78609,E,1,10,1.0,340.9,M,46.0,M,,*5E
$GPGLL,4943.69002,N,01323.78609,E,160126.800,A*3A
$GPRMC,160126.800,A,4943.69002,N,01323.78609,E,18.30,328.2,021210,0.0,E*67
$GPVTG,328.2,T,328.2,M,18.30,N,33.89,K*45
$GPGSA,A,3,14,17,19,20,23,24,31,32,,,,,1.6,1.0,1.2*3A
$GPGSV,3,1,09,11,75,208,26,32,85,299,26,23,15,195,24,19,14,174,23*74
$GPGSV,3,2,09,17,29,307,22,14,26,045,18,20,55,258,16,31,13,105,16*78
$GPGGA,160127.800,4943.69486,N,01323.78134,E,1,10,1.0,340.7,M,46.0,M,,*50
$GPGLL,4943.69486,N,01323.78134,E,160127.800,A*3A
$GPRMC,160127.800,A,4943.69486,N,01323.78134,E,18.20,329.4,021210,0.0,E*61
$GPVTG,329.4,T,329.4,M,18.20,N,33.71,K*43