$GPGGA,160104.800,4943.62139,N,01323.84668,E,1,9,1.0,335.0,M,46.0,M,,*6B
$GPGLL,4943.62139,N,01323.84668,E,160104.800,A*3C
$GPRMC,160104.800,A,4943.62139,N,01323.84668,E,7.80,347.8,021210,0.0,E*57
$GPVTG,347.8,T,347.8,M,7.80,N,14.45,K*75
$GPGGA,160105.800,4943.62346,N,01323.84586,E,1,9,1.0,335.1,M,46.0,M,,*62
$GPGLL,4943.62346,N,01323.84586,E,160105.800,A*34
$GPRMC,160105.800,A,4943.62346,N,01323.84586,E,6.70,341.0,021210,0.0,E*5F
$GPVTG,341.0,T,341.0,M,6.70,N,12.41,K*79
$GPGSA,A,3,14,17,19,20,23,24,31,32,,,,,1.6,1.0,1.2*3A
$GPGSV,2,1,08,32,85,288,26,24,68,120,26,14,27,046,25,11,76,213,25*74
$GPGSV,2,2,08,17,29,307,19,31,12,105,19,19,16,174,19,20,54,257,16*7C
$GPGGA,160106.800,4943.62503,N,01323.84343,E,1,9,1.0,335.6,M,46.0,M,,*6E
$GPGLL,4943.62503,N,01323.84343,E,160106.800,A*3F
$GPRMC,160106.800,A,4943.62503,N,01323.84343,E,6.70,328.1,021210,0.0,E*5A
$GPVTG,328.1,T,328.1,M,6.70,N,12.41,K*79
$GPGGA,160107.800,4943.62729,N,01323.84214,E,1,9,1.0,336.7,M,46.0,M,,*64
$GPGLL,4943.62729,N,01323.84214,E,160107.800,A*37
$GPRMC,160107.800,A,4943.62729,N,01323.84214,E,6.70,328.3,021210,0.0,E*50
$GPVTG,328.3,T,328.3,M,6.70,N,12.41,K*79
$GPGGA,160108.800,4943.62881,N,01323.84054,E,1,9,1.0,336.5,M,46.0,M,,*62
$GPGLL,4943.62881,N,01323.84054,E,160108.800,A*33
$GPRMC,160108.800,A,4943.62881,N,01323.84054,E,6.60,326.8,021210,0.0,E*50
$GPVTG,326.8,T,326.8,M,6.60,N,12.22,K*7D
$GPGGA,160109.800,4943.63046,N,01323.83926,E,1,9,1.0,336.7,M,46.0,M,,*68
$GPGLL,4943.63046,N,01323.83926,E,160109.800,A*3B
$GPRMC,160109.800,A,4943.63046,N,01323.83926,E,6.60,326.3,021210,0.0,E*53
$GPVTG,326.3,T,326.3,M,6.60,N,12.22,K*7D
$GPGGA,160110.800,4943.63208,N,01323.83801,E,1,9,1.0,336.6,M,46.0,M,,*6D
$GPGLL,4943.63208,N,01323.83801,E,160110.800,A*3F
$GPRMC,160110.800,A,4943.63208,N,01323.83801,E,6.50,329.0,021210,0.0,E*58
$GPVTG,329.0,T,329.0,M,6.50,N,12.04,K*7A
$GPGSA,A,3,14,17,19,20,23,24,28,31,32,,,,1.3,0.9,1.0*3F
$GPGSV,3,1,09,11,75,208,26,24,68,120,26,23,15,195,22,14,26,045,19*71
$GPGSV,3,2,09,20,55,258,16,19,14,174,16,17,29,307,16,28,04,267,13*72
$GPGGA,160111.800,4943.63372,N,01323.83654,E,1,10,0.9,336.6,M,46.0,M,,*5E
$GPGLL,4943.63372,N,01323.83654,E,160111.800,A*3C
$GPRMC,160111.800,A,4943.63372,N,01323.83654,E,6.70,327.9,021210,0.0,E*5E
$GPVTG,327.9,T,327.9,M,6.70,N,12.41,K*79
$GPGGA,160112.800,4943.63574,N,01323.83401,E,1,10,0.9,337.1,M,46.0,M,,*59
$GPGLL,4943.63574,N,01323.83401,E,160112.800,A*3D
$GPRMC,160112.800,A,4943.63574,N,01323.83401,E,7.60,326.6,021210,0.0,E*51
$GPVTG,326.6,T,326.6,M,7.60,N,14.08,K*72
$GPGGA,160113.800,4943.63808,N,01323.83154,E,1,10,0.9,337.4,M,46.0,M,,*5E
$GPGLL,4943.63808,N,01323.83154,E,160113.800,A*3F
$GPRMC,160113.800,A,4943.63808,N,01323.83154,E,8.80,328.9,021210,0.0,E*53
$GPVTG,328.9,T,328.9,M,8.80,N,16.30,K*7A
$GPGGA,160114.800,4943.64111,N,01323.82978,E,1,10,0.9,338.3,M,46.0,M,,*50
$GPGLL,4943.64111,N,01323.82978,E,160114.800,A*39
$GPRMC,160114.800,A,4943.64111,N,01323.82978,E,9.30,331.3,021210,0.0,E*5D
$GPVTG,331.3,T,331.3,M,9.30,N,17.22,K*72
$GPGGA,160115.800,4943.64454,N,01323.82793,E,1,10,0.9,338.6,M,46.0,M,,*5B
$GPGLL,4943.64454,N,01323.82793,E,160115.800,A*37
$GPRMC,160115.800,A,4943.64454,N,01323.82793,E,10.40,335.5,021210,0.0,E*6E
$GPVTG,335.5,T,335.5,M,10.40,N,19.26,K*47
$GPGSA,A,3,14,17,19,20,23,24,28,31,32,,,,1.6,1.0,1.2*30
$GPGSV,3,1,09,11,75,208,27,24,68,120,26,31,13,105,22,23,15,195,21*7F
$GPGSV,3,2,09,14,26,045,20,20,55,258,20,19,14,174,19,17,29,307,15*76
$GPGGA,160116.800,4943.64762,N,01323.82551,E,1,10,1.0,338.8,M,46.0,M,,*54
$GPGLL,4943.64762,N,01323.82551,E,160116.800,A*3E
$GPRMC,160116.800,A,4943.64762,N,01323.82551,E,11.90,335.4,021210,0.0,E*6A
$GPVTG,335.4,T,335.4,M,11.90,N,22.04,K*43
$GPGGA,160117.800,4943.65091,N,01323.82149,E,1,10,1.0,338.8,M,46.0,M,,*52
$GPGLL,4943.65091,N,01323.82149,E,160117.800,A*38
$GPRMC,160117.800,A,4943.65091,N,01323.82149,E,13.70,331.2,021210,0.0,E*62
$GPVTG,331.2,T,331.2,M,13.70,N,25.37,K*48
$GPGGA,160118.800,4943.65498,N,01323.81866,E,1,10,1.0,339.2,M,46.0,M,,*5C
$GPGLL,4943.65498,N,01323.81866,E,160118.800,A*3D
$GPRMC,160118.800,A,4943.65498,N,01323.81866,E,14.80,330.7,021210,0.0,E*6B
$GPVTG,330.7,T,330.7,M,14.80,N,27.41,K*43
$GPGGA,160119.800,4943.65844,N,01323.81569,E,1,10,1.0,339.1,M,46.0,M,,*51
$GPGLL,4943.65844,N,01323.81569,E,160119.800,A*33
$GPRMC,160119.800,A,4943.65844,N,01323.81569,E,14.80,330.3,021210,0.0,E*61
$GPVTG,330.3,T,330.3,M,14.80,N,27.41,K*43
$GPGGA,160120.800,4943.66268,N,01323.81237,E,1,10,1.0,339.8,M,46.0,M,,*59
$GPGLL,4943.66268,N,01323.81237,E,160120.800,A*32
$GPRMC,160120.800,A,4943.66268,N,01323.81237,E,15.60,328.4,021210,0.0,E*61
$GPVTG,328.4,T,328.4,M,15.60,N,28.89,K*47
$GPGSA,A,3,14,17,19,20,23,24,31,32,,,,,1.6,1.0,1.2*3A
$GPGSV,3,1,09,32,86,310,26,11,75,208,26,31,13,105,25,23,15,195,23*7D
$GPGSV,3,2,09,19,14,174,20,20,55,258,18,17,29,307,16,14,26,045,14*73
$GPGGA,160121.800,4943.66666,N,01323.80929,E,1,10,1.0,340.3,M,46.0,M,,*52
$GPGLL,4943.66666,N,01323.80929,E,160121.800,A*3C