$GPRMC,154050.800,A,4943.53538,N,01323.55911,E,2.40,255.0,021210,0.0,E*59
$GPVTG,255.0,T,255.0,M,2.40,N,4.44,K*4C
$GPGGA,154051.800,4943.53531,N,01323.55773,E,1,10,0.9,307.2,M,46.0,M,,*57
$GPGLL,4943.53531,N,01323.55773,E,154051.800,A*33
$GPRMC,154051.800,A,4943.53531,N,01323.55773,E,2.30,263.5,021210,0.0,E*5C
$GPVTG,263.5,T,263.5,M,2.30,N,4.26,K*4F
$GPGSA,A,3,14,17,19,20,23,24,28,31,32,,,,1.3,0.9,1.0*3F
$GPGSV,3,1,09,20,47,251,30,19,23,175,28,14,33,050,26,32,78,248,25*75
$GPGSV,3,2,09,11,75,250,24,24,77,109,22,28,10,274,21,17,23,313,19*7B
$GPGGA,154052.800,4943.53544,N,01323.55678,E,1,10,0.9,306.9,M,46.0,M,,*56
$GPGLL,4943.53544,N,01323.55678,E,154052.800,A*38
$GPRMC,154052.800,A,4943.53544,N,01323.55678,E,3.10,268.8,021210,0.0,E*52
$GPVTG,268.8,T,268.8,M,3.10,N,5.74,K*4A
$GPGGA,154053.800,4943.53571,N,01323.55572,E,1,10,0.9,306.7,M,46.0,M,,*56
$GPGLL,4943.53571,N,01323.55572,E,154053.800,A*36
$GPRMC,154053.800,A,4943.53571,N,01323.55572,E,3.10,266.4,021210,0.0,E*5E
$GPVTG,266.4,T,266.4,M,3.10,N,5.74,K*4A
$GPGGA,154054.800,4943.53594,N,01323.55468,E,1,10,0.9,306.5,M,46.0,M,,*52
$GPGLL,4943.53594,N,01323.55468,E,154054.800,A*30
$GPRMC,154054.800,A,4943.53594,N,01323.55468,E,2.70,266.0,021210,0.0,E*5B
$GPVTG,266.0,T,266.0,M,2.70,N,5.00,K*4E
$GPGGA,154055.800,4943.53587,N,01323.55363,E,1,10,0.9,306.3,M,46.0,M,,*5B
$GPGLL,4943.53587,N,01323.55363,E,154055.800,A*3F
$GPRMC,154055.800,A,4943.53587,N,01323.55363,E,2.60,267.1,021210,0.0,E*55
$GPVTG,267.1,T,267.1,M,2.60,N,4.82,K*44
$GPGGA,154056.800,4943.53621,N,01323.55224,E,1,10,0.9,306.6,M,46.0,M,,*50
$GPGLL,4943.53621,N,01323.55224,E,154056.800,A*31
$GPRMC,154056.800,A,4943.53621,N,01323.55224,E,2.60,269.2,021210,0.0,E*56
$GPVTG,269.2,T,269.2,M,2.60,N,4.82,K*44
$GPGSA,A,3,14,17,19,20,23,24,28,31,32,,,,1.3,0.9,1.0*3F
$GPGSV,3,1,09,19,23,175,30,20,47,251,28,11,75,250,25,32,78,248,24*72
$GPGSV,3,2,09,14,33,050,24,24,77,109,21,31,07,111,18,28,10,274,18*74
$GPGGA,154057.800,4943.53586,N,01323.55043,E,1,10,0.9,305.7,M,46.0,M,,*5E
$GPGLL,4943.53586,N,01323.55043,E,154057.800,A*3D
$GPRMC,154057.800,A,4943.53586,N,01323.55043,E,3.00,265.6,021210,0.0,E*55
$GPVTG,265.6,T,265.6,M,3.00,N,5.56,K*4B
$GPGGA,154058.800,4943.53592,N,01323.54984,E,1,10,0.9,305.8,M,46.0,M,,*58
$GPGLL,4943.53592,N,01323.54984,E,154058.800,A*34
$GPRMC,154058.800,A,4943.53592,N,01323.54984,E,2.40,267.0,021210,0.0,E*5D
$GPVTG,267.0,T,267.0,M,2.40,N,4.44,K*4C
$GPGGA,154059.800,4943.53589,N,01323.54891,E,1,10,0.9,305.6,M,46.0,M,,*58
$GPGLL,4943.53589,N,01323.54891,E,154059.800,A*3A
$GPRMC,154059.800,A,4943.53589,N,01323.54891,E,2.20,266.2,021210,0.0,E*56
$GPVTG,266.2,T,266.2,M,2.20,N,4.07,K*4D
$GPGGA,154100.800,4943.53571,N,01323.54713,E,1,10,0.9,305.7,M,46.0,M,,*56
$GPGLL,4943.53571,N,01323.54713,E,154100.800,A*35
$GPRMC,154100.800,A,4943.53571,N,01323.54713,E,2.30,259.5,021210,0.0,E*53
$GPVTG,259.5,T,259.5,M,2.30,N,4.26,K*4F
$GPGGA,154101.800,4943.53604,N,01323.54524,E,1,10,0.9,305.6,M,46.0,M,,*51
$GPGLL,4943.53604,N,01323.54524,E,154101.800,A*33
$GPRMC,154101.800,A,4943.53604,N,01323.54524,E,3.00,260.1,021210,0.0,E*59
$GPVTG,260.1,T,260.1,M,3.00,N,5.56,K*4B
$GPGSA,A,3,14,17,19,20,23,24,28,31,32,,,,1.3,0.9,1.0*3F
$GPGSV,3,1,09,19,23,175,30,20,47,251,28,14,33,050,28,11,75,250,24*7F
$GPGSV,3,2,09,32,78,248,23,24,77,109,21,31,07,111,20,28,09,274,20*7B
$GPGGA,154102.800,4943.53643,N,01323.54437,E,1,10,0.9,304.6,M,46.0,M,,*53
$GPGLL,4943.53643,N,01323.54437,E,154102.800,A*30
$GPRMC,154102.800,A,4943.53643,N,01323.54437,E,2.70,263.1,021210,0.0,E*5F
$GPVTG,263.1,T,263.1,M,2.70,N,5.00,K*4E
$GPGGA,154103.800,4943.53661,N,01323.54296,E,1,10,0.9,304.0,M,46.0,M,,*59
$GPGLL,4943.53661,N,01323.54296,E,154103.800,A*3C
$GPRMC,154103.800,A,4943.53661,N,01323.54296,E,2.20,262.8,021210,0.0,E*5E
$GPVTG,262.8,T,262.8,M,2.20,N,4.07,K*4D
$GPGGA,154104.800,4943.53709,N,01323.54134,E,1,10,0.9,302.8,M,46.0,M,,*54
$GPGLL,4943.53709,N,01323.54134,E,154104.800,A*3F
$GPRMC,154104.800,A,4943.53709,N,01323.54134,E,2.50,263.9,021210,0.0,E*5A
$GPVTG,263.9,T,263.9,M,2.50,N,4.63,K*48
$GPGGA,154105.800,4943.53726,N,01323.53981,E,1,10,0.9,302.5,M,46.0,M,,*54
$GPGLL,4943.53726,N,01323.53981,E,154105.800,A*32
$GPRMC,154105.800,A,4943.53726,N,01323.53981,E,2.20,264.5,021210,0.0,E*5B
$GPVTG,264.5,T,264.5,M,2.20,N,4.07,K*4D
$GPGGA,154106.800,4943.53751,N,01323.53836,E,1,10,0.9,302.1,M,46.0,M,,*5E
$GPGLL,4943.53751,N,01323.53836,E,154106.800,A*3C
$GPRMC,154106.800,A,4943.53751,N,01323.53836,E,2.30,267.2,021210,0.0,E*50
$GPVTG,267.2,T,267.2,M,2.30,N,4.26,K*4F
$GPGSA,A,3,14,17,19,20,23,24,28,31,32,,,,1.3,0.9,1.0*3F
$GPGSV,3,1,09,17,22,314,29,19,25,175,27,23,05,195,27,32,77,246,25*7A
$GPGSV,3,2,09,11,75,254,24,28,10,275,23,24,79,108,20,14,34,052,20*78
$GPGGA,154107.800,4943.53764,N,01323.53762,E,1,10,0.9,301.9,M,46.0,M,,*5C
$GPGLL,4943.53764,N,01323.53762,E,154107.800,A*35
$GPRMC,154107.800,A,4943.53764,N,01323.53762,E,1.70,270.9,021210,0.0,E*53
$GPVTG,270.9,T,270.9,M,1.70,N,3.15,K*4F
$GPGGA,154108.800,4943.53749,N,01323.53586,E,1,10,0.9,302.8,M,46.0,M,,*56
$GPGLL,4943.53749,N,01323.53586,E,154108.800,A*3D
$GPRMC,154108.800,A,4943.53749,N,01323.53586,E,2.40,271.7,021210,0.0,E*54
$GPVTG,271.7,T,271.7,M,2.40,N,4.44,K*4C
$GPGGA,154109.800,4943.53759,N,01323.53384,E,1,10,0.9,303.0,M,46.0,M,,*5B
$GPGLL,4943.53759,N,01323.53384,E,154109.800,A*39
$GPRMC,154109.800,A,4943.53759,N,01323.53384,E,2.10,270.4,021210,0.0,E*57
$GPVTG,270.4,T,270.4,M,2.10,N,3.89,K*4F
$GPGGA,154110.800,4943.53766,N,01323.53239,E,1,10,0.9,302.8,M,46.0,M,,*51
$GPGLL,4943.53766,N,01323.53239,E,154110.800,A*3A
$GPRMC,154110.800,A,4943.53766,N,01323.53239,E,1.80,271.5,021210,0.0,E*5E
$GPVTG,271.5,T,271.5,M,1.80,N,3.33,K*44
$GPGGA,154111.800,4943.53779,N,01323.53077,E,1,10,0.9,302.0,M,46.0,M,,*5E
$GPGLL,4943.53779,N,01323.53077,E,154111.800,A*3D
$GPRMC,154111.800,A,4943.53779,N,01323.53077,E,1.70,274.3,021210,0.0,E*55
$GPVTG,274.3,T,274.3,M,1.70,N,3.15,K*4F
$GPGSA,A,3,14,17,19,20,23,24,28,31,32,,,,1.3,0.9,1.0*3F
$GPGSV,3,1,09,17,23,313,29,23,06,195,27,19,23,175,26,32,78,248,26*7A
$GPGSV,3,2,09,28,09,274,24,11,75,248,23,31,07,111,21,24,77,109,20*73
$GPGGA,154112.800,4943.53786,N,01323.52959,E,1,10,0.9,302.2,M,46.0,M,,*5B
$GPGLL,4943.53786,N,01323.52959,E,154112.800,A*3A
$GPRMC,154112.800,A,4943.53786,N,01323.52959,E,1.60,280.5,021210,0.0,E*5E
$GPVTG,280.5,T,280.5,M,1.60,N,2.96,K*44
$GPGGA,154113.800,4943.53798,N,01323.52836,E,1,10,0.9,303.0,M,46.0,M,,*5E
$GPGLL,4943.53798,N,01323.52836,E,154113.800,A*3C
$GPRMC,154113.800,A,4943.53798,N,01323.52836,E,1.40,280.5,021210,0.0,E*5A
$GPVTG,280.5,T,280.5,M,1.40,N,2.59,K*45
$GPGGA,154115.800,4943.53778,N,01323.52568,E,1,10,0.9,304.5,M,46.0,M,,*52
$GPGLL,4943.53778,N,01323.52568,E,154115.800,A*32
$GPRMC,154115.800,A,4943.53778,N,01323.52568,E,1.60,269.2,021210,0.0,E*56
$GPVTG,269.2,T,269.2,M,1.60,N,2.96,K*44
$GPGGA,154116.800,4943.53794,N,01323.52429,E,1,10,0.9,304.4,M,46.0,M,,*56
$GPGLL,4943.53794,N,01323.52429,E,154116.800,A*37
$GPRMC,154116.800,A,4943.53794,N,01323.52429,E,1.40,269.2,021210,0.0,E*51
$GPVTG,269.2,T,269.2,M,1.40,N,2.59,K*45
$GPGGA,154117.800,4943.53818,N,01323.52281,E,1,10,0.9,305.6,M,46.0,M,,*5B
$GPGLL,4943.53818,N,01323.52281,E,154117.800,A*39
$GPRMC,154117.800,A,4943.53818,N,01323.52281,E,1.00,269.2,021210,0.0,E*5B
$GPVTG,269.2,T,269.2,M,1.00,N,1.85,K*43
$GPGSA,A,3,14,17,19,20,23,24,28,31,32,,,,1.3,0.9,1.0*3F
$GPGSV,3,1,09,17,23,313,28,32,78,248,25,19,23,175,25,31,07,111,24*76
$GPGSV,3,2,09,11,75,248,22,28,09,274,21,23,06,195,21,24,77,109,20*79
$GPGGA,154118.800,4943.53821,N,01323.52131,E,1,10,0.9,306.5,M,46.0,M,,*56
$GPGLL,4943.53821,N,01323.52131,E,154118.800,A*34
$GPRMC,154118.800,A,4943.53821,N,01323.52131,E,1.20,269.2,021210,0.0,E*54
$GPVTG,269.2,T,269.2,M,1.20,N,2.22,K*4F
$GPGGA,154119.800,4943.53813,N,01323.52082,E,1,10,0.9,307.5,M,46.0,M,,*5E
$GPGLL,4943.53813,N,01323.52082,E,154119.800,A*3D
$GPRMC,154119.800,A,4943.53813,N,01323.52082,E,0.80,269.2,021210,0.0,E*56
$GPVTG,269.2,T,269.2,M,0.80,N,1.48,K*4B
$GPGGA,154120.800,4943.53859,N,01323.52014,E,1,10,0.9,308.1,M,46.0,M,,*5E
$GPGLL,4943.53859,N,01323.52014,E,154120.800,A*36
$GPRMC,154120.800,A,4943.53859,N,01323.52014,E,0.80,269.2,021210,0.0,E*5D
$GPVTG,269.2,T,269.2,M,0.80,N,1.48,K*4B
$GPGGA,154121.800,4943.53874,N,01323.51934,E,1,10,0.9,309.0,M,46.0,M,,*58
$GPGLL,4943.53874,N,01323.51934,E,154121.800,A*30
$GPRMC,154121.800,A,4943.53874,N,01323.51934,E,0.80,269.2,021210,0.0,E*5B
$GPVTG,269.2,T,269.2,M,0.80,N,1.48,K*4B
$GPGGA,154122.800,4943.53859,N,01323.51839,E,1,10,0.9,310.0,M,46.0,M,,*50
$GPGLL,4943.53859,N,01323.51839,E,154122.800,A*30
$GPRMC,154122.800,A,4943.53859,N,01323.51839,E,0.50,269.2,021210,0.0,E*56
$GPVTG,269.2,T,269.2,M,0.50,N,0.93,K*41
$GPGSA,A,3,14,17,19,20,23,24,28,31,32,,,,1.3,0.9,1.0*3F
$GPGSV,3,1,09,19,23,175,27,17,23,313,26,32,78,248,24,11,75,248,23*74
$GPGSV,3,2,09,31,07,111,23,14,33,050,23,23,06,195,22,24,77,109,22*71
$GPGGA,154123.800,4943.53841,N,01323.51762,E,1,10,0.9,310.7,M,46.0,M,,*5E
$GPGLL,4943.53841,N,01323.51762,E,154123.800,A*39
$GPRMC,154123.800,A,4943.53841,N,01323.51762,E,0.60,269.2,021210,0.0,E*5C
$GPVTG,269.2,T,269.2,M,0.60,N,1.11,K*49
$GPGGA,154124.800,4943.53804,N,01323.51689,E,1,10,0.9,311.2,M,46.0,M,,*58
$GPGLL,4943.53804,N,01323.51689,E,154124.800,A*3B
$GPRMC,154124.800,A,4943.53804,N,01323.51689,E,0.40,269.2,021210,0.0,E*5C
$GPVTG,269.2,T,269.2,M,0.40,N,0.74,K*49
$GPGGA,154125.800,4943.53751,N,01323.51591,E,1,10,0.9,311.8,M,46.0,M,,*56
$GPGLL,4943.53751,N,01323.51591,E,154125.800,A*3F
$GPRMC,154125.800,A,4943.53751,N,01323.51591,E,0.70,269.2,021210,0.0,E*5B
$GPVTG,269.2,T,269.2,M,0.70,N,1.30,K*4B
$GPGGA,154126.800,4943.53751,N,01323.51568,E,1,10,0.9,313.3,M,46.0,M,,*5A
$GPGLL,4943.53751,N,01323.51568,E,154126.800,A*3A
$GPRMC,154126.800,A,4943.53751,N,01323.51568,E,0.60,269.2,021210,0.0,E*5F
$GPVTG,269.2,T,269.2,M,0.60,N,1.11,K*49
$GPGGA,154127.800,4943.53773,N,01323.51571,E,1,10,0.9,314.3,M,46.0,M,,*54
$GPGLL,4943.53773,N,01323.51571,E,154127.800,A*33
$GPRMC,154127.800,A,4943.53773,N,01323.51571,E,0.70,269.2,021210,0.0,E*57
$GPVTG,269.2,T,269.2,M,0.70,N,1.30,K*4B
$GPGSA,A,3,14,17,19,20,23,24,28,31,32,,,,1.3,0.9,1.0*3F
$GPGSV,3,1,09,20,47,251,28,23,06,195,27,32,78,248,26,19,23,175,25*79
$GPGSV,3,2,09,11,75,248,24,24,77,109,21,17,23,313,19,28,09,274,19*72
$GPGGA,154128.800,4943.53824,N,01323.51557,E,1,10,0.9,315.7,M,46.0,M,,*57
$GPGLL,4943.53824,N,01323.51557,E,154128.800,A*35
$GPRMC,154128.800,A,4943.53824,N,01323.51557,E,0.40,269.2,021210,0.0,E*52
$GPVTG,269.2,T,269.2,M,0.40,N,0.74,K*49
$GPGGA,154129.800,4943.53811,N,01323.51541,E,1,10,0.9,316.2,M,46.0,M,,*51
$GPGLL,4943.53811,N,01323.51541,E,154129.800,A*35
$GPRMC,154129.800,A,4943.53811,N,01323.51541,E,0.60,269.2,021210,0.0,E*50
$GPVTG,269.2,T,269.2,M,0.60,N,1.11,K*49
$GPGGA,154130.800,4943.53819,N,01323.51439,E,1,10,0.9,316.0,M,46.0,M,,*5D
$GPGLL,4943.53819,N,01323.51439,E,154130.800,A*3B
$GPRMC,154130.800,A,4943.53819,N,01323.51439,E,1.00,269.2,021210,0.0,E*59
$GPVTG,269.2,T,269.2,M,1.00,N,1.85,K*43
$GPGGA,154131.800,4943.53806,N,01323.51413,E,1,10,0.9,316.3,M,46.0,M,,*59
$GPGLL,4943.53806,N,01323.51413,E,154131.800,A*3C
$GPRMC,154131.800,A,4943.53806,N,01323.51413,E,0.90,269.2,021210,0.0,E*56
$GPVTG,269.2,T,269.2,M,0.90,N,1.67,K*47
$GPGGA,154132.800,4943.53824,N,01323.51331,E,1,10,0.9,317.1,M,46.0,M,,*5E
$GPGLL,4943.53824,N,01323.51331,E,154132.800,A*38
$GPRMC,154132.800,A,4943.53824,N,01323.51331,E,0.90,269.2,021210,0.0,E*52
$GPVTG,269.2,T,269.2,M,0.90,N,1.67,K*47
$GPGSA,A,3,14,17,19,20,23,24,28,31,32,,,,1.3,0.9,1.0*3F
$GPGSV,3,1,09,20,47,251,29,23,06,195,27,19,23,175,25,11,75,248,24*76
$GPGSV,3,2,09,32,78,248,24,24,77,109,22,28,09,274,18,31,07,111,18*7F
$GPGGA,154133.800,4943.53769,N,01323.51298,E,1,10,0.9,317.0,M,46.0,M,,*5A
$GPGLL,4943.53769,N,01323.51298,E,154133.800,A*3D
$GPRMC,154133.800,A,4943.53769,N,01323.51298,E,1.00,269.2,021210,0.0,E*5F
$GPVTG,269.2,T,269.2,M,1.00,N,1.85,K*43
$GPGGA,154134.800,4943.53708,N,01323.51229,E,1,10,0.9,317.2,M,46.0,M,,*52
$GPGLL,4943.53708,N,01323.51229,E,154134.800,A*37
$GPRMC,154134.800,A,4943.53708,N,01323.51229,E,1.40,269.2,021210,0.0,E*51
$GPVTG,269.2,T,269.2,M,1.40,N,2.59,K*45
$GPGGA,154135.800,4943.53807,N,01323.50906,E,1,10,0.9,316.1,M,46.0,M,,*56
$GPGLL,4943.53807,N,01323.50906,E,154135.800,A*31
$GPRMC,154135.800,A,4943.53807,N,01323.50906,E,3.20,264.1,021210,0.0,E*5D
$GPVTG,264.1,T,264.1,M,3.20,N,5.93,K*40
$GPGGA,154136.800,4943.53847,N,01323.50718,E,1,10,0.9,315.1,M,46.0,M,,*53
$GPGLL,4943.53847,N,01323.50718,E,154136.800,A*37
$GPRMC,154136.800,A,4943.53847,N,01323.50718,E,3.00,264.2,021210,0.0,E*5A
$GPVTG,264.2,T,264.2,M,3.00,N,5.56,K*4B
$GPGGA,154137.800,4943.53841,N,01323.50559,E,1,10,0.9,314.4,M,46.0,M,,*57
$GPGLL,4943.53841,N,01323.50559,E,154137.800,A*37
$GPRMC,154137.800,A,4943.53841,N,01323.50559,E,2.80,266.0,021210,0.0,E*53
$GPVTG,266.0,T,266.0,M,2.80,N,5.19,K*49
$GPGSA,A,3,14,17,19,20,23,24,28,31,32,,,,1.3,0.9,1.0*3F
$GPGSV,3,1,09,23,06,195,31,20,47,251,30,32,78,250,26,11,76,248,24*7A
$GPGSV,3,2,09,24,77,111,24,31,07,111,23,14,32,050,19,28,09,274,15*7A
$GPGGA,154138.800,4943.53821,N,01323.50391,E,1,10,0.9,312.6,M,46.0,M,,*58
$GPGLL,4943.53821,N,01323.50391,E,154138.800,A*3C
$GPRMC,154138.800,A,4943.53821,N,01323.50391,E,2.20,257.2,021210,0.0,E*52
$GPVTG,257.2,T,257.2,M,2.20,N,4.07,K*4D
$GPGGA,154139.800,4943.53861,N,01323.50251,E,1,10,0.9,311.4,M,46.0,M,,*51
$GPGLL,4943.53861,N,01323.50251,E,154139.800,A*34
$GPRMC,154139.800,A,4943.53861,N,01323.50251,E,2.80,277.1,021210,0.0,E*51
$GPVTG,277.1,T,277.1,M,2.80,N,5.19,K*49
$GPGGA,154140.800,4943.53839,N,01323.50146,E,1,10,0.9,311.1,M,46.0,M,,*52
$GPGLL,4943.53839,N,01323.50146,E,154140.800,A*32
$GPRMC,154140.800,A,4943.53839,N,01323.50146,E,2.60,275.3,021210,0.0,E*59
$GPVTG,275.3,T,275.3,M,2.60,N,4.82,K*44
$GPGGA,154142.800,4943.53884,N,01323.49846,E,1,10,1.0,310.5,M,46.0,M,,*5A
$GPGLL,4943.53884,N,01323.49846,E,154142.800,A*37
$GPRMC,154142.800,A,4943.53884,N,01323.49846,E,2.80,278.3,021210,0.0,E*5F
$GPVTG,278.3,T,278.3,M,2.80,N,5.19,K*49
$GPGGA,154143.800,4943.53872,N,01323.49736,E,1,10,0.9,310.1,M,46.0,M,,*56
$GPGLL,4943.53872,N,01323.49736,E,154143.800,A*37
$GPRMC,154143.800,A,4943.53872,N,01323.49736,E,2.70,272.7,021210,0.0,E*5E
$GPVTG,272.7,T,272.7,M,2.70,N,5.00,K*4E
$GPGSA,A,3,14,17,19,20,23,24,28,31,32,,,,1.3,0.9,1.0*3F
$GPGSV,3,1,09,19,23,175,27,31,07,111,26,23,06,195,25,11,76,248,23*7E
$GPGSV,3,2,09,32,78,250,21,24,77,111,21,28,09,274,17,14,32,050,16*7D
$GPGGA,154144.800,4943.53872,N,01323.49577,E,1,10,0.9,309.7,M,46.0,M,,*58
$GPGLL,4943.53872,N,01323.49577,E,154144.800,A*37
$GPRMC,154144.800,A,4943.53872,N,01323.49577,E,2.90,271.5,021210,0.0,E*51
$GPVTG,271.5,T,271.5,M,2.90,N,5.37,K*44
$GPGGA,154145.800,4943.53861,N,01323.49486,E,1,10,0.9,308.8,M,46.0,M,,*5A
$GPGLL,4943.53861,N,01323.49486,E,154145.800,A*3B
$GPRMC,154145.800,A,4943.53861,N,01323.49486,E,2.60,269.2,021210,0.0,E*5C
$GPVTG,269.2,T,269.2,M,2.60,N,4.82,K*44
$GPGGA,154146.800,4943.53853,N,01323.49349,E,1,10,0.9,308.4,M,46.0,M,,*50
$GPGLL,4943.53853,N,01323.49349,E,154146.800,A*3D
$GPRMC,154146.800,A,4943.53853,N,01323.49349,E,2.60,267.1,021210,0.0,E*57
$GPVTG,267.1,T,267.1,M,2.60,N,4.82,K*44
$GPGGA,154147.800,4943.53768,N,01323.49201,E,1,10,0.9,307.9,M,46.0,M,,*59
$GPGLL,4943.53768,N,01323.49201,E,154147.800,A*36
$GPRMC,154147.800,A,4943.53768,N,01323.49201,E,2.60,258.1,021210,0.0,E*50
$GPVTG,258.1,T,258.1,M,2.60,N,4.82,K*44
$GPGGA,154148.800,4943.53776,N,01323.49068,E,1,10,0.9,307.5,M,46.0,M,,*58
$GPGLL,4943.53776,N,01323.49068,E,154148.800,A*3B
$GPRMC,154148.800,A,4943.53776,N,01323.49068,E,2.70,260.0,021210,0.0,E*56
$GPVTG,260.0,T,260.0,M,2.70,N,5.00,K*4E
$GPGSA,A,3,14,17,19,20,23,24,28,31,32,,,,1.5,1.1,1.0*30
$GPGSV,2,1,08,23,06,195,29,19,23,175,28,11,76,248,28,32,78,250,27*7A
$GPGSV,2,2,08,31,07,111,25,24,77,111,24,17,23,313,20,28,09,274,13*77
$GPGGA,154149.800,4943.53821,N,01323.49018,E,1,9,1.1,306.1,M,46.0,M,,*67
$GPGLL,4943.53821,N,01323.49018,E,154149.800,A*30
$GPRMC,154149.800,A,4943.53821,N,01323.49018,E,1.70,280.1,021210,0.0,E*51
$GPVTG,280.1,T,280.1,M,1.70,N,3.15,K*4F
$GPGGA,154150.800,4943.53829,N,01323.48933,E,1,9,1.1,305.0,M,46.0,M,,*64
$GPGLL,4943.53829,N,01323.48933,E,154150.800,A*31
$GPRMC,154150.800,A,4943.53829,N,01323.48933,E,2.50,263.9,021210,0.0,E*54
$GPVTG,263.9,T,263.9,M,2.50,N,4.63,K*48
$GPGGA,154151.800,4943.53867,N,01323.48806,E,1,9,1.1,304.2,M,46.0,M,,*6B
$GPGLL,4943.53867,N,01323.48806,E,154151.800,A*3D
$GPRMC,154151.800,A,4943.53867,N,01323.48806,E,2.40,264.2,021210,0.0,E*55
$GPVTG,264.2,T,264.2,M,2.40,N,4.44,K*4C
$GPGGA,154152.800,4943.53849,N,01323.48712,E,1,10,0.9,304.9,M,46.0,M,,*54
$GPGLL,4943.53849,N,01323.48712,E,154152.800,A*38
$GPRMC,154152.800,A,4943.53849,N,01323.48712,E,1.70,240.7,021210,0.0,E*53
$GPVTG,240.7,T,240.7,M,1.70,N,3.15,K*4F
$GPGGA,154153.800,4943.53826,N,01323.48651,E,1,10,0.9,305.3,M,46.0,M,,*51
$GPGLL,4943.53826,N,01323.48651,E,154153.800,A*36
$GPRMC,154153.800,A,4943.53826,N,01323.48651,E,1.60,239.6,021210,0.0,E*53
$GPVTG,239.6,T,239.6,M,1.60,N,2.96,K*44
$GPGSA,A,3,14,17,19,20,23,24,28,31,32,,,,1.3,0.9,1.0*3F
$GPGSV,3,1,09,19,23,175,28,17,23,313,28,23,07,195,28,11,76,247,27*7A
$GPGSV,3,2,09,32,78,250,27,24,77,111,22,31,07,111,21,14,32,050,19*74
$GPGGA,154154.800,4943.53829,N,01323.48564,E,1,10,0.9,305.5,M,46.0,M,,*5A
$GPGLL,4943.53829,N,01323.48564,E,154154.800,A*3B
$GPRMC,154154.800,A,4943.53829,N,01323.48564,E,1.40,239.6,021210,0.0,E*5C
$GPVTG,239.6,T,239.6,M,1.40,N,2.59,K*45
$GPGGA,154155.800,4943.53764,N,01323.48301,E,1,10,0.9,306.9,M,46.0,M,,*57
$GPGLL,4943.53764,N,01323.48301,E,154155.800,A*39
$GPRMC,154155.800,A,4943.53764,N,01323.48301,E,3.90,243.5,021210,0.0,E*5F
$GPVTG,243.5,T,243.5,M,3.90,N,7.22,K*43
$GPGGA,154156.800,4943.53716,N,01323.48098,E,1,10,0.9,307.3,M,46.0,M,,*59
$GPGLL,4943.53716,N,01323.48098,E,154156.800,A*3C
$GPRMC,154156.800,A,4943.53716,N,01323.48098,E,3.40,243.7,021210,0.0,E*55
$GPVTG,243.7,T,243.7,M,3.40,N,6.30,K*4C
$GPGGA,154157.800,4943.53674,N,01323.47976,E,1,10,0.9,308.2,M,46.0,M,,*55
$GPGLL,4943.53674,N,01323.47976,E,154157.800,A*3E
$GPRMC,154157.800,A,4943.53674,N,01323.47976,E,2.90,243.2,021210,0.0,E*5E
$GPVTG,243.2,T,243.2,M,2.90,N,5.37,K*44
$GPGGA,154158.800,4943.53674,N,01323.47923,E,1,10,0.9,309.3,M,46.0,M,,*5A
$GPGLL,4943.53674,N,01323.47923,E,154158.800,A*31
$GPRMC,154158.800,A,4943.53674,N,01323.47923,E,2.00,249.3,021210,0.0,E*53
$GPVTG,249.3,T,249.3,M,2.00,N,3.70,K*48
$GPGSA,A,3,14,17,19,20,23,24,28,31,32,,,,1.3,0.9,1.0*3F
$GPGSV,3,1,09,23,07,195,30,19,23,175,30,32,78,250,28,17,23,313,28*7C
$GPGSV,3,2,09,11,76,247,27,14,32,050,24,24,77,111,23,31,07,111,21*72
$GPGGA,154159.800,4943.53641,N,01323.47826,E,1,10,0.9,310.0,M,46.0,M,,*52
$GPGLL,4943.53641,N,01323.47826,E,154159.800,A*32
$GPRMC,154159.800,A,4943.53641,N,01323.47826,E,1.70,238.9,021210,0.0,E*58
$GPVTG,238.9,T,238.9,M,1.70,N,3.15,K*4F
$GPGGA,154200.800,4943.53618,N,01323.47801,E,1,10,0.9,310.3,M,46.0,M,,*57
$GPGLL,4943.53618,N,01323.47801,E,154200.800,A*34
$GPRMC,154200.800,A,4943.53618,N,01323.47801,E,1.20,238.9,021210,0.0,E*5B
$GPVTG,238.9,T,238.9,M,1.20,N,2.22,K*4F
$GPGGA,154202.800,4943.53666,N,01323.47576,E,1,10,0.9,309.6,M,46.0,M,,*5C
$GPGLL,4943.53666,N,01323.47576,E,154202.800,A*32
$GPRMC,154202.800,A,4943.53666,N,01323.47576,E,1.50,285.6,021210,0.0,E*53
$GPVTG,285.6,T,285.6,M,1.50,N,2.78,K*47
$GPGGA,154203.800,4943.53641,N,01323.47519,E,1,10,0.9,310.2,M,46.0,M,,*5D
$GPGLL,4943.53641,N,01323.47519,E,154203.800,A*3F
$GPRMC,154203.800,A,4943.53641,N,01323.47519,E,1.10,285.6,021210,0.0,E*5A
$GPVTG,285.6,T,285.6,M,1.10,N,2.04,K*48
$GPGGA,154204.800,4943.53706,N,01323.47397,E,1,10,0.9,309.7,M,46.0,M,,*55
$GPGLL,4943.53706,N,01323.47397,E,154204.800,A*3A
$GPRMC,154204.800,A,4943.53706,N,01323.47397,E,2.30,296.8,021210,0.0,E*52
$GPVTG,296.8,T,296.8,M,2.30,N,4.26,K*4F
$GPGSA,A,3,14,17,19,20,23,24,28,31,32,,,,1.3,0.9,1.0*3F
$GPGSV,3,1,09,32,78,250,26,17,23,313,25,19,23,175,25,11,76,247,24*75
$GPGSV,3,2,09,31,07,111,24,23,07,195,23,14,32,050,22,24,77,111,20*7D
$GPGGA,154205.800,4943.53719,N,01323.47322,E,1,10,0.9,310.0,M,46.0,M,,*5B
$GPGLL,4943.53719,N,01323.47322,E,154205.800,A*3B
$GPRMC,154205.800,A,4943.53719,N,01323.47322,E,2.10,294.2,021210,0.0,E*59
$GPVTG,294.2,T,294.2,M,2.10,N,3.89,K*4F
$GPGGA,154206.800,4943.53689,N,01323.47243,E,1,10,0.9,310.2,M,46.0,M,,*54
$GPGLL,4943.53689,N,01323.47243,E,154206.800,A*36
$GPRMC,154206.800,A,4943.53689,N,01323.47243,E,1.40,294.2,021210,0.0,E*52
$GPVTG,294.2,T,294.2,M,1.40,N,2.59,K*45
$GPGGA,154207.800,4943.53671,N,01323.47189,E,1,10,0.9,310.6,M,46.0,M,,*53
$GPGLL,4943.53671,N,01323.47189,E,154207.800,A*35
$GPRMC,154207.800,A,4943.53671,N,01323.47189,E,1.00,294.2,021210,0.0,E*55
$GPVTG,294.2,T,294.2,M,1.00,N,1.85,K*43
$GPGGA,154208.800,4943.53668,N,01323.47144,E,1,10,0.9,310.5,M,46.0,M,,*56
$GPGLL,4943.53668,N,01323.47144,E,154208.800,A*33
$GPRMC,154208.800,A,4943.53668,N,01323.47144,E,1.00,294.2,021210,0.0,E*53
$GPVTG,294.2,T,294.2,M,1.00,N,1.85,K*43
$GPGGA,154209.800,4943.53631,N,01323.47011,E,1,10,0.9,311.9,M,46.0,M,,*57
$GPGLL,4943.53631,N,01323.47011,E,154209.800,A*3F
$GPRMC,154209.800,A,4943.53631,N,01323.47011,E,2.10,257.6,021210,0.0,E*56
$GPVTG,257.6,T,257.6,M,2.10,N,3.89,K*4F
$GPGSA,A,3,14,17,19,20,23,24,28,31,32,,,,1.3,0.9,1.0*3F
$GPGSV,3,1,09,11,76,247,26,20,47,251,26,32,79,250,25,24,77,111,25*7A
$GPGSV,3,2,09,31,07,111,24,17,23,313,22,14,32,050,22,23,07,195,21*7C
$GPGGA,154210.800,4943.53626,N,01323.46954,E,1,10,0.9,312.2,M,46.0,M,,*58
$GPGLL,4943.53626,N,01323.46954,E,154210.800,A*38
$GPRMC,154210.800,A,4943.53626,N,01323.46954,E,2.00,254.5,021210,0.0,E*50
$GPVTG,254.5,T,254.5,M,2.00,N,3.70,K*48
$GPGGA,154211.800,4943.53614,N,01323.46902,E,1,10,0.9,312.2,M,46.0,M,,*5B
$GPGLL,4943.53614,N,01323.46902,E,154211.800,A*3B
$GPRMC,154211.800,A,4943.53614,N,01323.46902,E,1.90,251.3,021210,0.0,E*5A
$GPVTG,251.3,T,251.3,M,1.90,N,3.52,K*42
$GPGGA,154212.800,4943.53606,N,01323.46827,E,1,10,0.9,312.4,M,46.0,M,,*5B
$GPGLL,4943.53606,N,01323.46827,E,154212.800,A*3D
$GPRMC,154212.800,A,4943.53606,N,01323.46827,E,2.00,248.6,021210,0.0,E*5B
$GPVTG,248.6,T,248.6,M,2.00,N,3.70,K*48
$GPGGA,154213.800,4943.53578,N,01323.46734,E,1,10,0.9,312.0,M,46.0,M,,*59
$GPGLL,4943.53578,N,01323.46734,E,154213.800,A*3B
$GPRMC,154213.800,A,4943.53578,N,01323.46734,E,1.90,253.1,021210,0.0,E*5A
$GPVTG,253.1,T,253.1,M,1.90,N,3.52,K*42
$GPGGA,154214.800,4943.53587,N,01323.46679,E,1,10,0.9,311.7,M,46.0,M,,*52
$GPGLL,4943.53587,N,01323.46679,E,154214.800,A*34
$GPRMC,154214.800,A,4943.53587,N,01323.46679,E,1.80,258.2,021210,0.0,E*5C
$GPVTG,258.2,T,258.2,M,1.80,N,3.33,K*44
$GPGSA,A,3,14,17,19,20,23,24,28,31,32,,,,1.3,0.9,1.0*3F
$GPGSV,3,1,09,20,47,251,27,24,77,111,26,31,07,111,24,23,07,195,22*7A
$GPGSV,3,2,09,11,76,247,17,14,32,050,16,32,79,250,16,28,09,274,15*78
$GPGGA,154215.800,4943.53559,N,01323.46611,E,1,10,0.9,311.5,M,46.0,M,,*5C
$GPGLL,4943.53559,N,01323.46611,E,154215.800,A*38
$GPRMC,154215.800,A,4943.53559,N,01323.46611,E,2.00,254.2,021210,0.0,E*57
$GPVTG,254.2,T,254.2,M,2.00,N,3.70,K*48
$GPGGA,154216.800,4943.53567,N,01323.46476,E,1,10,0.9,311.4,M,46.0,M,,*50
$GPGLL,4943.53567,N,01323.46476,E,154216.800,A*35
$GPRMC,154216.800,A,4943.53567,N,01323.46476,E,1.90,260.3,021210,0.0,E*56
$GPVTG,260.3,T,260.3,M,1.90,N,3.52,K*42
$GPGGA,154217.800,4943.53501,N,01323.46347,E,1,10,0.9,310.7,M,46.0,M,,*56
$GPGLL,4943.53501,N,01323.46347,E,154217.800,A*31
$GPRMC,154217.800,A,4943.53501,N,01323.46347,E,2.10,252.1,021210,0.0,E*5A
$GPVTG,252.1,T,252.1,M,2.10,N,3.89,K*4F
$GPGGA,154218.800,4943.53473,N,01323.46226,E,1,10,0.9,310.2,M,46.0,M,,*5E
$GPGLL,4943.53473,N,01323.46226,E,154218.800,A*3C
$GPRMC,154218.800,A,4943.53473,N,01323.46226,E,2.20,250.7,021210,0.0,E*50
$GPVTG,250.7,T,250.7,M,2.20,N,4.07,K*4D
$GPGGA,154219.800,4943.53429,N,01323.46104,E,1,10,1.1,309.1,M,46.0,M,,*51
$GPGLL,4943.53429,N,01323.46104,E,154219.800,A*31
$GPRMC,154219.800,A,4943.53429,N,01323.46104,E,2.30,253.4,021210,0.0,E*5C
$GPVTG,253.4,T,253.4,M,2.30,N,4.26,K*4F
$GPGSA,A,3,17,19,20,23,24,28,31,32,,,,,1.5,1.1,1.0*35
$GPGSV,3,1,09,23,07,195,30,11,76,247,30,19,23,175,28,28,09,274,26*7F
$GPGSV,3,2,09,32,79,250,25,31,07,111,24,24,77,111,18,14,32,050,16*74
$GPGGA,154220.800,4943.53306,N,01323.45848,E,1,10,1.1,309.5,M,46.0,M,,*57
$GPGLL,4943.53306,N,01323.45848,E,154220.800,A*33
$GPRMC,154220.800,A,4943.53306,N,01323.45848,E,3.30,251.9,021210,0.0,E*50
$GPVTG,251.9,T,251.9,M,3.30,N,6.11,K*48
$GPGGA,154221.800,4943.53224,N,01323.45674,E,1,9,1.1,308.0,M,46.0,M,,*6A
$GPGLL,4943.53224,N,01323.45674,E,154221.800,A*32
$GPRMC,154221.800,A,4943.53224,N,01323.45674,E,2.90,256.8,021210,0.0,E*5C
$GPVTG,256.8,T,256.8,M,2.90,N,5.37,K*44
$GPGGA,154222.800,4943.53191,N,01323.45531,E,1,9,1.1,307.9,M,46.0,M,,*60
$GPGLL,4943.53191,N,01323.45531,E,154222.800,A*3E
$GPRMC,154222.800,A,4943.53191,N,01323.45531,E,2.80,257.0,021210,0.0,E*58
$GPVTG,257.0,T,257.0,M,2.80,N,5.19,K*49
$GPGGA,154223.800,4943.53207,N,01323.45406,E,1,9,1.1,307.9,M,46.0,M,,*68
$GPGLL,4943.53207,N,01323.45406,E,154223.800,A*36
$GPRMC,154223.800,A,4943.53207,N,01323.45406,E,2.60,261.0,021210,0.0,E*5B
$GPVTG,261.0,T,261.0,M,2.60,N,4.82,K*44
$GPGGA,154224.800,4943.53226,N,01323.45297,E,1,9,1.1,307.5,M,46.0,M,,*6E
$GPGLL,4943.53226,N,01323.45297,E,154224.800,A*3C
$GPRMC,154224.800,A,4943.53226,N,01323.45297,E,2.50,263.8,021210,0.0,E*58
$GPVTG,263.8,T,263.8,M,2.50,N,4.63,K*48
$GPGSA,A,3,17,19,20,23,24,28,31,32,,,,,1.5,1.1,1.0*35
$GPGSV,2,1,08,28,09,274,31,23,07,195,30,32,79,250,26,19,23,175,25*7B
$GPGSV,2,2,08,11,76,247,24,24,77,111,22,31,07,111,22,17,23,313,21*71
$GPGGA,154225.800,4943.53154,N,01323.45267,E,1,9,1.1,307.5,M,46.0,M,,*66
$GPGLL,4943.53154,N,01323.45267,E,154225.800,A*34
$GPRMC,154225.800,A,4943.53154,N,01323.45267,E,2.20,258.2,021210,0.0,E*55
$GPVTG,258.2,T,258.2,M,2.20,N,4.07,K*4D
$GPGGA,154226.800,4943.53236,N,01323.45359,E,1,9,1.1,306.3,M,46.0,M,,*69
$GPGLL,4943.53236,N,01323.45359,E,154226.800,A*3C
$GPRMC,154226.800,A,4943.53236,N,01323.45359,E,1.50,341.3,021210,0.0,E*51
$GPVTG,341.3,T,341.3,M,1.50,N,2.78,K*47
$GPGGA,154227.800,4943.53279,N,01323.45334,E,1,9,1.1,305.7,M,46.0,M,,*6F
$GPGLL,4943.53279,N,01323.45334,E,154227.800,A*3D
$GPRMC,154227.800,A,4943.53279,N,01323.45334,E,1.30,341.3,021210,0.0,E*56
$GPVTG,341.3,T,341.3,M,1.30,N,2.41,K*4B
$GPGGA,154228.800,4943.53366,N,01323.45318,E,1,9,1.1,304.8,M,46.0,M,,*6F
$GPGLL,4943.53366,N,01323.45318,E,154228.800,A*33
$GPRMC,154228.800,A,4943.53366,N,01323.45318,E,1.30,341.3,021210,0.0,E*58
$GPVTG,341.3,T,341.3,M,1.30,N,2.41,K*4B
$GPGGA,154230.800,4943.53527,N,01323.45241,E,1,9,1.1,303.6,M,46.0,M,,*61
$GPGLL,4943.53527,N,01323.45241,E,154230.800,A*34
$GPRMC,154230.800,A,4943.53527,N,01323.45241,E,1.50,313.0,021210,0.0,E*5D
$GPVTG,313.0,T,313.0,M,1.50,N,2.78,K*47
$GPGSA,A,3,17,19,20,23,24,28,31,32,,,,,1.5,1.1,1.0*35
$GPGSV,2,1,08,20,47,251,32,28,09,274,29,32,79,250,27,23,07,195,25*7C
$GPGSV,2,2,08,11,76,247,25,19,23,175,23,24,77,111,22,31,07,111,22*7E
$GPGGA,154231.800,4943.53616,N,01323.45267,E,1,9,1.1,302.9,M,46.0,M,,*6B
$GPGLL,4943.53616,N,01323.45267,E,154231.800,A*30
$GPRMC,154231.800,A,4943.53616,N,01323.45267,E,1.20,313.0,021210,0.0,E*5E
$GPVTG,313.0,T,313.0,M,1.20,N,2.22,K*4F
$GPGGA,154232.800,4943.53672,N,01323.45324,E,1,9,1.1,304.2,M,46.0,M,,*61
$GPGLL,4943.53672,N,01323.45324,E,154232.800,A*37
$GPRMC,154232.800,A,4943.53672,N,01323.45324,E,1.40,313.0,021210,0.0,E*5F
$GPVTG,313.0,T,313.0,M,1.40,N,2.59,K*45
$GPGGA,154233.800,4943.53746,N,01323.45371,E,1,9,1.1,304.6,M,46.0,M,,*62
$GPGLL,4943.53746,N,01323.45371,E,154233.800,A*30
$GPRMC,154233.800,A,4943.53746,N,01323.45371,E,1.30,313.0,021210,0.0,E*5F
$GPVTG,313.0,T,313.0,M,1.30,N,2.41,K*4B
$GPGGA,154234.800,4943.53776,N,01323.45379,E,1,9,1.1,305.4,M,46.0,M,,*6D
$GPGLL,4943.53776,N,01323.45379,E,154234.800,A*3C
$GPRMC,154234.800,A,4943.53776,N,01323.45379,E,0.90,313.0,021210,0.0,E*58
$GPVTG,313.0,T,313.0,M,0.90,N,1.67,K*47
$GPGGA,154235.800,4943.53819,N,01323.45404,E,1,9,1.1,305.7,M,46.0,M,,*64
$GPGLL,4943.53819,N,01323.45404,E,154235.800,A*36
$GPRMC,154235.800,A,4943.53819,N,01323.45404,E,0.90,313.0,021210,0.0,E*52
$GPVTG,313.0,T,313.0,M,0.90,N,1.67,K*47
$GPGSA,A,3,17,19,20,23,24,28,31,32,,,,,1.5,1.1,1.0*35
$GPGSV,2,1,08,20,47,251,32,28,09,272,29,32,79,250,28,11,76,246,28*72
$GPGSV,2,2,08,23,07,195,27,19,23,175,22,24,77,111,19,31,07,111,18*77
$GPGGA,154236.800,4943.53834,N,01323.45333,E,1,9,1.1,305.7,M,46.0,M,,*6B
$GPGLL,4943.53834,N,01323.45333,E,154236.800,A*39
$GPRMC,154236.800,A,4943.53834,N,01323.45333,E,0.00,313.0,021210,0.0,E*54
$GPVTG,313.0,T,313.0,M,0.00,N,0.00,K*4E
$GPGGA,154237.800,4943.53836,N,01323.45329,E,1,9,1.1,305.8,M,46.0,M,,*6C
$GPGLL,4943.53836,N,01323.45329,E,154237.800,A*31
$GPRMC,154237.800,A,4943.53836,N,01323.45329,E,0.00,313.0,021210,0.0,E*5C
$GPVTG,313.0,T,313.0,M,0.00,N,0.00,K*4E
$GPGGA,154238.800,4943.53839,N,01323.45313,E,1,9,1.1,305.9,M,46.0,M,,*64
$GPGLL,4943.53839,N,01323.45313,E,154238.800,A*38
$GPRMC,154238.800,A,4943.53839,N,01323.45313,E,0.00,313.0,021210,0.0,E*55
$GPVTG,313.0,T,313.0,M,0.00,N,0.00,K*4E
$GPGGA,154239.800,4943.53839,N,01323.45313,E,1,9,1.1,305.9,M,46.0,M,,*65
$GPGLL,4943.53839,N,01323.45313,E,154239.800,A*39
$GPRMC,154239.800,A,4943.53839,N,01323.45313,E,0.50,313.0,021210,0.0,E*51
$GPVTG,313.0,T,313.0,M,0.50,N,0.93,K*41
$GPGGA,154240.800,4943.53892,N,01323.45241,E,1,9,1.1,306.3,M,46.0,M,,*65
$GPGLL,4943.53892,N,01323.45241,E,154240.800,A*30
$GPRMC,154240.800,A,4943.53892,N,01323.45241,E,0.60,313.0,021210,0.0,E*5B
$GPVTG,313.0,T,313.0,M,0.60,N,1.11,K*49
$GPGSA,A,3,17,19,20,23,24,28,31,32,,,,,1.5,1.1,1.0*35
$GPGSV,2,1,08,17,23,313,30,20,47,251,29,28,09,272,27,32,79,250,25*75
$GPGSV,2,2,08,24,77,111,25,11,76,246,23,19,23,175,22,31,07,111,20*7D
$GPGGA,154241.800,4943.53876,N,01323.45221,E,1,9,1.1,306.4,M,46.0,M,,*6F
$GPGLL,4943.53876,N,01323.45221,E,154241.800,A*3D
$GPRMC,154241.800,A,4943.53876,N,01323.45221,E,0.00,313.0,021210,0.0,E*50
$GPVTG,313.0,T,313.0,M,0.00,N,0.00,K*4E
$GPGGA,154242.800,4943.53821,N,01323.45168,E,1,9,1.1,305.5,M,46.0,M,,*62
$GPGLL,4943.53821,N,01323.45168,E,154242.800,A*32
$GPRMC,154242.800,A,4943.53821,N,01323.45168,E,0.00,313.0,021210,0.0,E*5F
$GPVTG,313.0,T,313.0,M,0.00,N,0.00,K*4E
$GPGGA,154243.800,4943.53821,N,01323.45168,E,1,9,1.1,305.5,M,46.0,M,,*63
$GPGLL,4943.53821,N,01323.45168,E,154243.800,A*33
$GPRMC,154243.800,A,4943.53821,N,01323.45168,E,0.00,313.0,021210,0.0,E*5E
$GPVTG,313.0,T,313.0,M,0.00,N,0.00,K*4E
$GPGGA,154244.800,4943.53652,N,01323.45006,E,1,9,1.1,304.8,M,46.0,M,,*6B
$GPGLL,4943.53652,N,01323.45006,E,154244.800,A*37
$GPRMC,154244.800,A,4943.53652,N,01323.45006,E,1.60,186.5,021210,0.0,E*56
$GPVTG,186.5,T,186.5,M,1.60,N,2.96,K*44
$GPGGA,154245.800,4943.53586,N,01323.44951,E,1,9,1.1,304.4,M,46.0,M,,*66
$GPGLL,4943.53586,N,01323.44951,E,154245.800,A*36
$GPRMC,154245.800,A,4943.53586,N,01323.44951,E,1.90,187.5,021210,0.0,E*59
$GPVTG,187.5,T,187.5,M,1.90,N,3.52,K*42
$GPGSA,A,3,17,19,20,23,24,28,31,32,,,,,1.5,1.1,1.0*35
$GPGSV,2,1,08,19,23,175,30,31,07,111,28,11,76,246,27,20,47,251,27*73
$GPGSV,2,2,08,17,23,313,27,32,79,250,25,24,77,111,25,28,09,272,24*7F
$GPGGA,154246.800,4943.53498,N,01323.44922,E,1,9,1.1,304.6,M,46.0,M,,*6D
$GPGLL,4943.53498,N,01323.44922,E,154246.800,A*3F
$GPRMC,154246.800,A,4943.53498,N,01323.44922,E,2.10,185.3,021210,0.0,E*5F
$GPVTG,185.3,T,185.3,M,2.10,N,3.89,K*4F
$GPGGA,154247.800,4943.53422,N,01323.44823,E,1,9,1.1,304.4,M,46.0,M,,*6F
$GPGLL,4943.53422,N,01323.44823,E,154247.800,A*3F
$GPRMC,154247.800,A,4943.53422,N,01323.44823,E,2.40,191.2,021210,0.0,E*5E
$GPVTG,191.2,T,191.2,M,2.40,N,4.44,K*4C
$GPGGA,154248.800,4943.53314,N,01323.44791,E,1,9,1.1,304.4,M,46.0,M,,*64
$GPGLL,4943.53314,N,01323.44791,E,154248.800,A*34
$GPRMC,154248.800,A,4943.53314,N,01323.44791,E,2.40,192.9,021210,0.0,E*5D
$GPVTG,192.9,T,192.9,M,2.40,N,4.44,K*4C
$GPGGA,154249.800,4943.53286,N,01323.44721,E,1,9,1.1,304.2,M,46.0,M,,*62
$GPGLL,4943.53286,N,01323.44721,E,154249.800,A*34
$GPRMC,154249.800,A,4943.53286,N,01323.44721,E,2.10,198.5,021210,0.0,E*5E
$GPVTG,198.5,T,198.5,M,2.10,N,3.89,K*4F
$GPGGA,154250.800,4943.53206,N,01323.44666,E,1,9,1.1,303.8,M,46.0,M,,*6D
$GPGLL,4943.53206,N,01323.44666,E,154250.800,A*36
$GPRMC,154250.800,A,4943.53206,N,01323.44666,E,2.40,201.9,021210,0.0,E*56
$GPVTG,201.9,T,201.9,M,2.40,N,4.44,K*4C
$GPGSA,A,3,17,19,20,23,24,28,31,32,,,,,1.5,1.1,1.0*35
$GPGSV,2,1,08,17,23,313,31,23,07,195,30,28,09,272,28,20,47,251,26*73
$GPGSV,2,2,08,32,79,250,25,11,76,246,24,24,77,111,22,31,07,111,20*78
$GPGGA,154251.800,4943.53131,N,01323.44589,E,1,9,1.1,303.7,M,46.0,M,,*66
$GPGLL,4943.53131,N,01323.44589,E,154251.800,A*32
$GPRMC,154251.800,A,4943.53131,N,01323.44589,E,2.50,209.8,021210,0.0,E*5A
$GPVTG,209.8,T,209.8,M,2.50,N,4.63,K*48
$GPGGA,154252.800,4943.53139,N,01323.44563,E,1,10,0.9,303.8,M,46.0,M,,*57
$GPGLL,4943.53139,N,01323.44563,E,154252.800,A*3D
$GPRMC,154252.800,A,4943.53139,N,01323.44563,E,1.50,228.2,021210,0.0,E*5F
$GPVTG,228.2,T,228.2,M,1.50,N,2.78,K*47
$GPGGA,154253.800,4943.53136,N,01323.44486,E,1,10,0.9,304.1,M,46.0,M,,*5D
$GPGLL,4943.53136,N,01323.44486,E,154253.800,A*39
$GPRMC,154253.800,A,4943.53136,N,01323.44486,E,1.20,228.2,021210,0.0,E*5C
$GPVTG,228.2,T,228.2,M,1.20,N,2.22,K*4F
$GPGGA,154254.800,4943.53009,N,01323.44333,E,1,10,0.9,303.9,M,46.0,M,,*51
$GPGLL,4943.53009,N,01323.44333,E,154254.800,A*3A
$GPRMC,154254.800,A,4943.53009,N,01323.44333,E,1.90,237.3,021210,0.0,E*5B
$GPVTG,237.3,T,237.3,M,1.90,N,3.52,K*42
$GPGGA,154256.800,4943.52906,N,01323.44018,E,1,10,0.9,304.9,M,46.0,M,,*59
$GPGLL,4943.52906,N,01323.44018,E,154256.800,A*35
$GPRMC,154256.800,A,4943.52906,N,01323.44018,E,2.60,237.6,021210,0.0,E*5D
$GPVTG,237.6,T,237.6,M,2.60,N,4.82,K*44
$GPGSA,A,3,14,17,19,20,23,24,28,31,32,,,,1.3,0.9,1.0*3F
$GPGSV,3,1,09,23,07,195,31,19,22,175,30,28,09,272,28,17,23,313,27*7E
$GPGSV,3,2,09,32,79,250,25,14,32,050,25,11,76,246,25,24,76,111,22*78
$GPGGA,154257.800,4943.52854,N,01323.43866,E,1,10,0.9,305.1,M,46.0,M,,*51
$GPGLL,4943.52854,N,01323.43866,E,154257.800,A*34
$GPRMC,154257.800,A,4943.52854,N,01323.43866,E,2.70,239.9,021210,0.0,E*5C
$GPVTG,239.9,T,239.9,M,2.70,N,5.00,K*4E
$GPGGA,154258.800,4943.52824,N,01323.43781,E,1,10,0.9,305.2,M,46.0,M,,*5C
$GPGLL,4943.52824,N,01323.43781,E,154258.800,A*3A
$GPRMC,154258.800,A,4943.52824,N,01323.43781,E,2.50,241.2,021210,0.0,E*54
$GPVTG,241.2,T,241.2,M,2.50,N,4.63,K*48
$GPGGA,154259.800,4943.52817,N,01323.43672,E,1,10,0.9,305.6,M,46.0,M,,*54
$GPGLL,4943.52817,N,01323.43672,E,154259.800,A*36
$GPRMC,154259.800,A,4943.52817,N,01323.43672,E,1.90,249.5,021210,0.0,E*58
$GPVTG,249.5,T,249.5,M,1.90,N,3.52,K*42
$GPGGA,154300.800,4943.52814,N,01323.43604,E,1,10,0.9,306.1,M,46.0,M,,*5F
$GPGLL,4943.52814,N,01323.43604,E,154300.800,A*39
$GPRMC,154300.800,A,4943.52814,N,01323.43604,E,1.90,260.9,021210,0.0,E*50
$GPVTG,260.9,T,260.9,M,1.90,N,3.52,K*42
$GPGGA,154301.800,4943.52831,N,01323.43519,E,1,10,0.9,306.6,M,46.0,M,,*51
$GPGLL,4943.52831,N,01323.43519,E,154301.800,A*30
$GPRMC,154301.800,A,4943.52831,N,01323.43519,E,2.10,260.6,021210,0.0,E*5D
$GPVTG,260.6,T,260.6,M,2.10,N,3.89,K*4F
$GPGSA,A,3,14,17,19,20,23,24,28,31,32,,,,1.3,0.9,1.0*3F
$GPGSV,3,1,09,28,09,272,29,17,23,313,29,32,79,250,27,23,07,195,26*72
$GPGSV,3,2,09,20,47,251,26,11,76,246,25,14,32,050,23,24,76,111,22*72
$GPGGA,154302.800,4943.52799,N,01323.43457,E,1,10,0.9,306.5,M,46.0,M,,*57
$GPGLL,4943.52799,N,01323.43457,E,154302.800,A*35
$GPRMC,154302.800,A,4943.52799,N,01323.43457,E,2.00,247.9,021210,0.0,E*53
$GPVTG,247.9,T,247.9,M,2.00,N,3.70,K*48
$GPGGA,154303.800,4943.52776,N,01323.43371,E,1,10,0.9,306.4,M,46.0,M,,*55
$GPGLL,4943.52776,N,01323.43371,E,154303.800,A*36
$GPRMC,154303.800,A,4943.52776,N,01323.43371,E,2.10,239.0,021210,0.0,E*51
$GPVTG,239.0,T,239.0,M,2.10,N,3.89,K*4F
$GPGGA,154304.800,4943.52666,N,01323.43344,E,1,10,0.9,306.2,M,46.0,M,,*52
$GPGLL,4943.52666,N,01323.43344,E,154304.800,A*37
$GPRMC,154304.800,A,4943.52666,N,01323.43344,E,2.20,235.4,021210,0.0,E*5B
$GPVTG,235.4,T,235.4,M,2.20,N,4.07,K*4D
$GPGGA,154305.800,4943.52619,N,01323.43161,E,1,10,0.9,306.3,M,46.0,M,,*5F
$GPGLL,4943.52619,N,01323.43161,E,154305.800,A*3B
$GPRMC,154305.800,A,4943.52619,N,01323.43161,E,2.40,250.8,021210,0.0,E*5E
$GPVTG,250.8,T,250.8,M,2.40,N,4.44,K*4C
$GPGGA,154306.800,4943.52633,N,01323.43146,E,1,10,0.9,306.0,M,46.0,M,,*52
$GPGLL,4943.52633,N,01323.43146,E,154306.800,A*35
$GPRMC,154306.800,A,4943.52633,N,01323.43146,E,2.00,253.8,021210,0.0,E*57
$GPVTG,253.8,T,253.8,M,2.00,N,3.70,K*48
$GPGSA,A,3,14,17,19,20,23,24,28,31,32,,,,1.3,0.9,1.0*3F
$GPGSV,3,1,09,17,23,313,31,20,47,251,28,19,22,175,27,28,09,272,27*74
$GPGSV,3,2,09,24,76,111,26,31,07,111,26,14,32,050,25,32,79,250,25*7A
$GPGGA,154307.800,4943.52593,N,01323.43078,E,1,10,0.9,306.3,M,46.0,M,,*55
$GPGLL,4943.52593,N,01323.43078,E,154307.800,A*31
$GPRMC,154307.800,A,4943.52593,N,01323.43078,E,1.80,243.8,021210,0.0,E*59
$GPVTG,243.8,T,243.8,M,1.80,N,3.33,K*44
$GPGGA,154308.800,4943.52522,N,01323.42994,E,1,10,0.9,305.5,M,46.0,M,,*5F
$GPGLL,4943.52522,N,01323.42994,E,154308.800,A*3E
$GPRMC,154308.800,A,4943.52522,N,01323.42994,E,1.70,244.3,021210,0.0,E*55
$GPVTG,244.3,T,244.3,M,1.70,N,3.15,K*4F
$GPGGA,154309.800,4943.52432,N,01323.42876,E,1,10,0.9,305.4,M,46.0,M,,*52
$GPGLL,4943.52432,N,01323.42876,E,154309.800,A*32
$GPRMC,154309.800,A,4943.52432,N,01323.42876,E,2.10,242.8,021210,0.0,E*51
$GPVTG,242.8,T,242.8,M,2.10,N,3.89,K*4F
$GPGGA,154310.800,4943.52364,N,01323.42786,E,1,10,0.9,305.2,M,46.0,M,,*58
$GPGLL,4943.52364,N,01323.42786,E,154310.800,A*3E
$GPRMC,154310.800,A,4943.52364,N,01323.42786,E,2.10,244.6,021210,0.0,E*55
$GPVTG,244.6,T,244.6,M,2.10,N,3.89,K*4F
$GPGGA,154311.800,4943.52284,N,01323.42638,E,1,10,0.9,304.8,M,46.0,M,,*59
$GPGLL,4943.52284,N,01323.42638,E,154311.800,A*34
$GPRMC,154311.800,A,4943.52284,N,01323.42638,E,2.40,242.1,021210,0.0,E*5B
$GPVTG,242.1,T,242.1,M,2.40,N,4.44,K*4C
$GPGSA,A,3,14,17,19,20,23,24,28,31,32,,,,1.3,0.9,1.0*3F
$GPGSV,3,1,09,28,09,272,36,20,47,251,31,17,23,313,29,31,07,111,28*75
$GPGSV,3,2,09,14,32,050,27,19,22,175,26,32,79,250,26,24,76,111,25*77
$GPGGA,154312.800,4943.52174,N,01323.42601,E,1,10,0.9,305.2,M,46.0,M,,*57
$GPGLL,4943.52174,N,01323.42601,E,154312.800,A*31
$GPRMC,154312.800,A,4943.52174,N,01323.42601,E,2.50,240.4,021210,0.0,E*58
$GPVTG,240.4,T,240.4,M,2.50,N,4.63,K*48
$GPGGA,154313.800,4943.52111,N,01323.42521,E,1,10,0.9,305.5,M,46.0,M,,*53
$GPGLL,4943.52111,N,01323.42521,E,154313.800,A*32
$GPRMC,154313.800,A,4943.52111,N,01323.42521,E,2.10,248.9,021210,0.0,E*5A
$GPVTG,248.9,T,248.9,M,2.10,N,3.89,K*4F
$GPGGA,154314.800,4943.52094,N,01323.42446,E,1,10,0.9,305.7,M,46.0,M,,*5A
$GPGLL,4943.52094,N,01323.42446,E,154314.800,A*39
$GPRMC,154314.800,A,4943.52094,N,01323.42446,E,2.20,265.1,021210,0.0,E*55
$GPVTG,265.1,T,265.1,M,2.20,N,4.07,K*4D
$GPGGA,154315.800,4943.52098,N,01323.42274,E,1,10,0.9,305.5,M,46.0,M,,*52
$GPGLL,4943.52098,N,01323.42274,E,154315.800,A*33
$GPRMC,154315.800,A,4943.52098,N,01323.42274,E,2.30,275.1,021210,0.0,E*5F
$GPVTG,275.1,T,275.1,M,2.30,N,4.26,K*4F
$GPGGA,154316.800,4943.52112,N,01323.42131,E,1,10,0.9,305.3,M,46.0,M,,*56
$GPGLL,4943.52112,N,01323.42131,E,154316.800,A*31
$GPRMC,154316.800,A,4943.52112,N,01323.42131,E,2.10,276.7,021210,0.0,E*5A
$GPVTG,276.7,T,276.7,M,2.10,N,3.89,K*4F
$GPGSA,A,3,14,17,19,20,23,24,28,31,32,,,,1.3,0.9,1.0*3F
$GPGSV,3,1,09,28,09,272,33,20,47,251,31,17,23,313,30,32,79,250,27*7B
$GPGSV,3,2,09,11,76,246,27,31,07,111,26,19,22,175,25,14,32,050,24*7E
$GPGGA,154317.800,4943.52084,N,01323.41996,E,1,10,0.9,305.0,M,46.0,M,,*5C
$GPGLL,4943.52084,N,01323.41996,E,154317.800,A*38
$GPRMC,154317.800,A,4943.52084,N,01323.41996,E,2.30,275.4,021210,0.0,E*51
$GPVTG,275.4,T,275.4,M,2.30,N,4.26,K*4F
$GPGGA,154318.800,4943.52108,N,01323.41878,E,1,10,0.9,304.8,M,46.0,M,,*5E
$GPGLL,4943.52108,N,01323.41878,E,154318.800,A*33
$GPRMC,154318.800,A,4943.52108,N,01323.41878,E,2.10,280.4,021210,0.0,E*52
$GPVTG,280.4,T,280.4,M,2.10,N,3.89,K*4F
$GPGGA,154319.800,4943.52136,N,01323.41776,E,1,10,0.9,304.5,M,46.0,M,,*5E
$GPGLL,4943.52136,N,01323.41776,E,154319.800,A*3E
$GPRMC,154319.800,A,4943.52136,N,01323.41776,E,2.20,284.5,021210,0.0,E*59
$GPVTG,284.5,T,284.5,M,2.20,N,4.07,K*4D
$GPGGA,154321.800,4943.52074,N,01323.41506,E,1,10,0.9,304.6,M,46.0,M,,*54
$GPGLL,4943.52074,N,01323.41506,E,154321.800,A*37
$GPRMC,154321.800,A,4943.52074,N,01323.41506,E,2.30,272.3,021210,0.0,E*5E
$GPVTG,272.3,T,272.3,M,2.30,N,4.26,K*4F
$GPGGA,154322.800,4943.52051,N,01323.41392,E,1,10,0.9,305.2,M,46.0,M,,*5E
$GPGLL,4943.52051,N,01323.41392,E,154322.800,A*38
$GPRMC,154322.800,A,4943.52051,N,01323.41392,E,2.20,269.6,021210,0.0,E*5F
$GPVTG,269.6,T,269.6,M,2.20,N,4.07,K*4D
$GPGSA,A,3,14,17,19,20,23,24,28,31,32,,,,1.3,0.9,1.0*3F
$GPGSV,3,1,09,20,47,251,32,23,07,195,30,17,23,313,29,14,32,050,26*74
$GPGSV,3,2,09,24,76,111,25,32,79,250,25,19,22,175,24,11,76,246,24*75
$GPGGA,154323.800,4943.52061,N,01323.41289,E,1,10,0.9,305.2,M,46.0,M,,*57
$GPGLL,4943.52061,N,01323.41289,E,154323.800,A*31
$GPRMC,154323.800,A,4943.52061,N,01323.41289,E,2.20,270.9,021210,0.0,E*51
$GPVTG,270.9,T,270.9,M,2.20,N,4.07,K*4D
$GPGGA,154324.800,4943.52104,N,01323.41199,E,1,10,0.9,304.5,M,46.0,M,,*56
$GPGLL,4943.52104,N,01323.41199,E,154324.800,A*36
$GPRMC,154324.800,A,4943.52104,N,01323.41199,E,2.40,289.9,021210,0.0,E*56
$GPVTG,289.9,T,289.9,M,2.40,N,4.44,K*4C
$GPGGA,154325.800,4943.52117,N,01323.41079,E,1,10,0.9,304.8,M,46.0,M,,*57
$GPGLL,4943.52117,N,01323.41079,E,154325.800,A*3A
$GPRMC,154325.800,A,4943.52117,N,01323.41079,E,2.20,288.1,021210,0.0,E*55
$GPVTG,288.1,T,288.1,M,2.20,N,4.07,K*4D
$GPGGA,154326.800,4943.52137,N,01323.40989,E,1,10,0.9,304.5,M,46.0,M,,*5C
$GPGLL,4943.52137,N,01323.40989,E,154326.800,A*3C
$GPRMC,154326.800,A,4943.52137,N,01323.40989,E,2.10,284.9,021210,0.0,E*54
$GPVTG,284.9,T,284.9,M,2.10,N,3.89,K*4F
$GPGGA,154327.800,4943.52141,N,01323.40944,E,1,10,0.9,304.1,M,46.0,M,,*59
$GPGLL,4943.52141,N,01323.40944,E,154327.800,A*3D
$GPRMC,154327.800,A,4943.52141,N,01323.40944,E,1.90,282.7,021210,0.0,E*56
$GPVTG,282.7,T,282.7,M,1.90,N,3.52,K*42
$GPGSA,A,3,14,17,19,20,23,24,28,31,32,,,,1.3,0.9,1.0*3F
$GPGSV,3,1,09,20,48,253,32,23,07,195,32,17,23,313,31,14,32,050,28*7C
$GPGSV,3,2,09,32,79,251,27,24,76,112,26,11,76,244,26,31,08,111,25*77
$GPGGA,154328.800,4943.52161,N,01323.40851,E,1,10,0.9,304.5,M,46.0,M,,*55
$GPGLL,4943.52161,N,01323.40851,E,154328.800,A*35
$GPRMC,154328.800,A,4943.52161,N,01323.40851,E,2.10,284.4,021210,0.0,E*50
$GPVTG,284.4,T,284.4,M,2.10,N,3.89,K*4F
$GPGGA,154329.800,4943.52193,N,01323.40801,E,1,10,0.9,304.6,M,46.0,M,,*5F
$GPGLL,4943.52193,N,01323.40801,E,154329.800,A*3C
$GPRMC,154329.800,A,4943.52193,N,01323.40801,E,2.00,279.1,021210,0.0,E*5F
$GPVTG,279.1,T,279.1,M,2.00,N,3.70,K*48
$GPGGA,154330.800,4943.52204,N,01323.40671,E,1,10,0.9,304.7,M,46.0,M,,*52
$GPGLL,4943.52204,N,01323.40671,E,154330.800,A*30
$GPRMC,154330.800,A,4943.52204,N,01323.40671,E,2.30,280.9,021210,0.0,E*5E
$GPVTG,280.9,T,280.9,M,2.30,N,4.26,K*4F
$GPGGA,154331.800,4943.52179,N,01323.40508,E,1,10,0.9,305.1,M,46.0,M,,*50
$GPGLL,4943.52179,N,01323.40508,E,154331.800,A*35
$GPRMC,154331.800,A,4943.52179,N,01323.40508,E,2.30,275.4,021210,0.0,E*5C
$GPVTG,275.4,T,275.4,M,2.30,N,4.26,K*4F
$GPGGA,154332.800,4943.52186,N,01323.40427,E,1,10,0.9,305.0,M,46.0,M,,*5E
$GPGLL,4943.52186,N,01323.40427,E,154332.800,A*3A
$GPRMC,154332.800,A,4943.52186,N,01323.40427,E,2.30,276.8,021210,0.0,E*5C
$GPVTG,276.8,T,276.8,M,2.30,N,4.26,K*4F
$GPGSA,A,3,14,17,19,20,23,24,28,31,32,,,,1.3,0.9,1.0*3F
$GPGSV,3,1,09,23,07,195,31,17,23,313,30,20,48,253,29,14,32,050,27*7B
$GPGSV,3,2,09,32,79,251,27,31,08,111,27,24,76,112,26,11,76,244,23*70
$GPGGA,154333.800,4943.52256,N,01323.40334,E,1,10,0.9,305.2,M,46.0,M,,*56
$GPGLL,4943.52256,N,01323.40334,E,154333.800,A*30
$GPRMC,154333.800,A,4943.52256,N,01323.40334,E,2.40,284.3,021210,0.0,E*57
$GPVTG,284.3,T,284.3,M,2.40,N,4.44,K*4C
$GPGGA,154334.800,4943.52204,N,01323.40114,E,1,10,0.9,305.6,M,46.0,M,,*52
$GPGLL,4943.52204,N,01323.40114,E,154334.800,A*30
$GPRMC,154334.800,A,4943.52204,N,01323.40114,E,2.70,273.9,021210,0.0,E*56
$GPVTG,273.9,T,273.9,M,2.70,N,5.00,K*4E
$GPGGA,154335.800,4943.52214,N,01323.40004,E,1,10,0.9,305.6,M,46.0,M,,*52
$GPGLL,4943.52214,N,01323.40004,E,154335.800,A*30
$GPRMC,154335.800,A,4943.52214,N,01323.40004,E,2.70,274.1,021210,0.0,E*59
$GPVTG,274.1,T,274.1,M,2.70,N,5.00,K*4E
$GPGGA,154336.800,4943.52209,N,01323.39846,E,1,10,0.9,305.9,M,46.0,M,,*52
$GPGLL,4943.52209,N,01323.39846,E,154336.800,A*3F
$GPRMC,154336.800,A,4943.52209,N,01323.39846,E,3.00,278.1,021210,0.0,E*5C
$GPVTG,278.1,T,278.1,M,3.00,N,5.56,K*4B
$GPGGA,154337.800,4943.52193,N,01323.39637,E,1,10,0.9,305.6,M,46.0,M,,*54
$GPGLL,4943.52193,N,01323.39637,E,154337.800,A*36
$GPRMC,154337.800,A,4943.52193,N,01323.39637,E,3.20,277.0,021210,0.0,E*59
$GPVTG,277.0,T,277.0,M,3.20,N,5.93,K*40
$GPGSA,A,3,17,20,23,28,,,,,,,,,1.3,0.9,1.0*37
$GPGSV,3,1,09,23,07,195,33,17,23,313,31,20,48,253,30,14,32,050,28*7F
$GPGSV,3,2,09,32,79,251,25,19,22,175,24,11,76,244,24,31,08,111,24*7A
$GPGGA,154338.800,4943.52188,N,01323.39549,E,1,10,0.9,305.1,M,46.0,M,,*5C
$GPGLL,4943.52188,N,01323.39549,E,154338.800,A*39
$GPRMC,154338.800,A,4943.52188,N,01323.39549,E,3.10,272.3,021210,0.0,E*53
$GPVTG,272.3,T,272.3,M,3.10,N,5.74,K*4A
$GPGGA,154339.800,4943.52244,N,01323.39418,E,1,10,0.9,304.5,M,46.0,M,,*5E
$GPGLL,4943.52244,N,01323.39418,E,154339.800,A*3E
$GPRMC,154339.800,A,4943.52244,N,01323.39418,E,3.20,276.7,021210,0.0,E*57
$GPVTG,276.7,T,276.7,M,3.20,N,5.93,K*40
$GPGGA,154340.800,4943.52284,N,01323.39339,E,1,10,0.9,304.4,M,46.0,M,,*59
$GPGLL,4943.52284,N,01323.39339,E,154340.800,A*38
$GPRMC,154340.800,A,4943.52284,N,01323.39339,E,3.00,279.3,021210,0.0,E*58
$GPVTG,279.3,T,279.3,M,3.00,N,5.56,K*4B
$GPGGA,154341.800,4943.52274,N,01323.39169,E,1,10,0.9,304.4,M,46.0,M,,*50
$GPGLL,4943.52274,N,01323.39169,E,154341.800,A*31
$GPRMC,154341.800,A,4943.52274,N,01323.39169,E,3.20,276.7,021210,0.0,E*58
$GPVTG,276.7,T,276.7,M,3.20,N,5.93,K*40
$GPGGA,154342.800,4943.52278,N,01323.39041,E,1,10,0.9,304.6,M,46.0,M,,*56
$GPGLL,4943.52278,N,01323.39041,E,154342.800,A*35
$GPRMC,154342.800,A,4943.52278,N,01323.39041,E,3.10,273.7,021210,0.0,E*5A
$GPVTG,273.7,T,273.7,M,3.10,N,5.74,K*4A
$GPGSA,A,3,17,20,23,28,32,,,,,,,,1.3,0.9,1.0*36
$GPGSV,3,1,09,23,07,195,32,32,79,251,29,20,48,253,29,17,23,313,29*76
$GPGSV,3,2,09,14,32,050,29,31,08,111,27,11,76,244,26,24,76,112,26*73
$GPGGA,154343.800,4943.52289,N,01323.38944,E,1,10,0.9,303.9,M,46.0,M,,*5C
$GPGLL,4943.52289,N,01323.38944,E,154343.800,A*37
$GPRMC,154343.800,A,4943.52289,N,01323.38944,E,2.90,273.9,021210,0.0,E*5F
$GPVTG,273.9,T,273.9,M,2.90,N,5.37,K*44
$GPGGA,154344.800,4943.52276,N,01323.38766,E,1,10,0.9,302.9,M,46.0,M,,*54
$GPGLL,4943.52276,N,01323.38766,E,154344.800,A*3E
$GPRMC,154344.800,A,4943.52276,N,01323.38766,E,2.30,284.2,021210,0.0,E*5F
$GPVTG,284.2,T,284.2,M,2.30,N,4.26,K*4F
$GPGGA,154345.800,4943.52287,N,01323.38683,E,1,10,0.9,301.9,M,46.0,M,,*52
$GPGLL,4943.52287,N,01323.38683,E,154345.800,A*3B
$GPRMC,154345.800,A,4943.52287,N,01323.38683,E,2.30,283.9,021210,0.0,E*56
$GPVTG,283.9,T,283.9,M,2.30,N,4.26,K*4F
$GPGGA,154346.800,4943.52326,N,01323.38608,E,1,10,0.9,301.6,M,46.0,M,,*57
$GPGLL,4943.52326,N,01323.38608,E,154346.800,A*31
$GPRMC,154346.800,A,4943.52326,N,01323.38608,E,2.40,286.2,021210,0.0,E*55
$GPVTG,286.2,T,286.2,M,2.40,N,4.44,K*4C
$GPGGA,154347.800,4943.52333,N,01323.38456,E,1,10,0.9,301.7,M,46.0,M,,*5A
$GPGLL,4943.52333,N,01323.38456,E,154347.800,A*3D
$GPRMC,154347.800,A,4943.52333,N,01323.38456,E,2.50,281.7,021210,0.0,E*5A
$GPVTG,281.7,T,281.7,M,2.50,N,4.63,K*48
$GPGSA,A,3,14,17,19,20,23,24,28,31,32,,,,1.3,0.9,1.0*3F
$GPGSV,3,1,09,23,07,195,33,20,48,253,30,14,32,049,29,17,23,313,27*71
$GPGSV,3,2,09,24,76,112,25,11,76,244,25,19,22,175,24,32,79,251,24*75
$GPGGA,154349.800,4943.52338,N,01323.38096,E,1,10,0.9,301.9,M,46.0,M,,*59
$GPGLL,4943.52338,N,01323.38096,E,154349.800,A*30
$GPRMC,154349.800,A,4943.52338,N,01323.38096,E,3.20,284.6,021210,0.0,E*55
$GPVTG,284.6,T,284.6,M,3.20,N,5.93,K*40
$GPGGA,154350.800,4943.52369,N,01323.37974,E,1,10,0.9,302.0,M,46.0,M,,*55
$GPGLL,4943.52369,N,01323.37974,E,154350.800,A*36
$GPRMC,154350.800,A,4943.52369,N,01323.37974,E,3.20,288.2,021210,0.0,E*5B
$GPVTG,288.2,T,288.2,M,3.20,N,5.93,K*40
$GPGGA,154351.800,4943.52389,N,01323.37804,E,1,10,0.9,302.4,M,46.0,M,,*58
$GPGLL,4943.52389,N,01323.37804,E,154351.800,A*3F
$GPRMC,154351.800,A,4943.52389,N,01323.37804,E,2.80,283.4,021210,0.0,E*54
$GPVTG,283.4,T,283.4,M,2.80,N,5.19,K*49
$GPGGA,154352.800,4943.52387,N,01323.37694,E,1,10,0.9,302.6,M,46.0,M,,*50
$GPGLL,4943.52387,N,01323.37694,E,154352.800,A*35
$GPRMC,154352.800,A,4943.52387,N,01323.37694,E,2.50,279.4,021210,0.0,E*56
$GPVTG,279.4,T,279.4,M,2.50,N,4.63,K*48
$GPGGA,154353.800,4943.52371,N,01323.37588,E,1,10,0.9,302.5,M,46.0,M,,*55
$GPGLL,4943.52371,N,01323.37588,E,154353.800,A*33
$GPRMC,154353.800,A,4943.52371,N,01323.37588,E,2.60,273.0,021210,0.0,E*5D
$GPVTG,273.0,T,273.0,M,2.60,N,4.82,K*44
$GPGSA,A,3,14,17,19,20,23,24,28,31,32,,,,1.3,0.9,1.0*3F
$GPGSV,3,1,09,23,07,195,31,14,32,049,30,17,23,313,30,20,48,253,30*7D
$GPGSV,3,2,09,32,79,251,25,31,08,111,25,11,76,244,24,24,76,112,23*72
$GPGGA,154354.800,4943.52356,N,01323.37421,E,1,10,0.9,302.3,M,46.0,M,,*53
$GPGLL,4943.52356,N,01323.37421,E,154354.800,A*33
$GPRMC,154354.800,A,4943.52356,N,01323.37421,E,2.80,271.6,021210,0.0,E*57
$GPVTG,271.6,T,271.6,M,2.80,N,5.19,K*49
$GPGGA,154355.800,4943.52374,N,01323.37331,E,1,10,0.9,302.2,M,46.0,M,,*55
$GPGLL,4943.52374,N,01323.37331,E,154355.800,A*34
$GPRMC,154355.800,A,4943.52374,N,01323.37331,E,2.60,276.2,021210,0.0,E*5D
$GPVTG,276.2,T,276.2,M,2.60,N,4.82,K*44
$GPGGA,154356.800,4943.52346,N,01323.37149,E,1,10,0.9,303.2,M,46.0,M,,*5B
$GPGLL,4943.52346,N,01323.37149,E,154356.800,A*3B
$GPRMC,154356.800,A,4943.52346,N,01323.37149,E,2.60,274.1,021210,0.0,E*53
$GPVTG,274.1,T,274.1,M,2.60,N,4.82,K*44
$GPGGA,154357.800,4943.52374,N,01323.37031,E,1,10,0.9,303.5,M,46.0,M,,*52
$GPGLL,4943.52374,N,01323.37031,E,154357.800,A*35
$GPRMC,154357.800,A,4943.52374,N,01323.37031,E,2.70,277.4,021210,0.0,E*5A
$GPVTG,277.4,T,277.4,M,2.70,N,5.00,K*4E
$GPGGA,154358.800,4943.52384,N,01323.36944,E,1,10,0.9,303.8,M,46.0,M,,*55
$GPGLL,4943.52384,N,01323.36944,E,154358.800,A*3F
$GPRMC,154358.800,A,4943.52384,N,01323.36944,E,2.50,279.3,021210,0.0,E*5B
$GPVTG,279.3,T,279.3,M,2.50,N,4.63,K*48
$GPGSA,A,3,14,17,19,20,23,24,28,31,32,,,,1.3,0.9,1.0*3F
$GPGSV,3,1,09,17,23,313,31,23,07,195,31,14,32,049,31,20,48,253,29*75
$GPGSV,3,2,09,32,79,251,28,31,08,111,24,19,22,175,24,24,76,112,24*71
$GPGGA,154359.800,4943.52389,N,01323.36749,E,1,10,0.9,303.3,M,46.0,M,,*51
$GPGLL,4943.52389,N,01323.36749,E,154359.800,A*30
$GPRMC,154359.800,A,4943.52389,N,01323.36749,E,2.90,275.2,021210,0.0,E*55
$GPVTG,275.2,T,275.2,M,2.90,N,5.37,K*44
$GPGGA,154400.800,4943.52389,N,01323.36628,E,1,10,0.9,303.9,M,46.0,M,,*56
$GPGLL,4943.52389,N,01323.36628,E,154400.800,A*3D
$GPRMC,154400.800,A,4943.52389,N,01323.36628,E,2.90,267.4,021210,0.0,E*5D
$GPVTG,267.4,T,267.4,M,2.90,N,5.37,K*44
$GPGGA,154401.800,4943.52361,N,01323.36421,E,1,10,0.9,304.0,M,46.0,M,,*54
$GPGLL,4943.52361,N,01323.36421,E,154401.800,A*31
$GPRMC,154401.800,A,4943.52361,N,01323.36421,E,2.90,267.8,021210,0.0,E*5D
$GPVTG,267.8,T,267.8,M,2.90,N,5.37,K*44
$GPGGA,154402.800,4943.52369,N,01323.36307,E,1,10,0.9,304.0,M,46.0,M,,*5C
$GPGLL,4943.52369,N,01323.36307,E,154402.800,A*39
$GPRMC,154402.800,A,4943.52369,N,01323.36307,E,2.90,270.9,021210,0.0,E*52
$GPVTG,270.9,T,270.9,M,2.90,N,5.37,K*44
$GPGGA,154403.800,4943.52364,N,01323.36201,E,1,10,0.9,303.9,M,46.0,M,,*59
$GPGLL,4943.52364,N,01323.36201,E,154403.800,A*32
$GPRMC,154403.800,A,4943.52364,N,01323.36201,E,2.90,269.4,021210,0.0,E*5C
$GPVTG,269.4,T,269.4,M,2.90,N,5.37,K*44
$GPGSA,A,3,14,17,19,20,23,24,28,31,32,,,,1.3,0.9,1.0*3F
$GPGSV,3,1,09,14,32,049,31,17,24,313,31,23,07,195,30,20,48,253,28*72
$GPGSV,3,2,09,32,79,251,25,11,76,243,24,19,22,175,24,24,76,112,24*73
$GPGGA,154404.800,4943.52389,N,01323.36098,E,1,10,0.9,303.9,M,46.0,M,,*5F
$GPGLL,4943.52389,N,01323.36098,E,154404.800,A*34
$GPRMC,154404.800,A,4943.52389,N,01323.36098,E,2.80,275.3,021210,0.0,E*51
$GPVTG,275.3,T,275.3,M,2.80,N,5.19,K*49
$GPGGA,154405.800,4943.52372,N,01323.35969,E,1,10,0.9,303.9,M,46.0,M,,*5E
$GPGLL,4943.52372,N,01323.35969,E,154405.800,A*35
$GPRMC,154405.800,A,4943.52372,N,01323.35969,E,2.70,270.1,021210,0.0,E*58
$GPVTG,270.1,T,270.1,M,2.70,N,5.00,K*4E
$GPGGA,154406.800,4943.52367,N,01323.35884,E,1,10,0.9,304.1,M,46.0,M,,*54
$GPGLL,4943.52367,N,01323.35884,E,154406.800,A*30
$GPRMC,154406.800,A,4943.52367,N,01323.35884,E,2.60,268.2,021210,0.0,E*56
$GPVTG,268.2,T,268.2,M,2.60,N,4.82,K*44
$GPGGA,154407.800,4943.52381,N,01323.35817,E,1,10,0.9,304.3,M,46.0,M,,*55
$GPGLL,4943.52381,N,01323.35817,E,154407.800,A*33
$GPRMC,154407.800,A,4943.52381,N,01323.35817,E,2.50,272.6,021210,0.0,E*59
$GPVTG,272.6,T,272.6,M,2.50,N,4.63,K*48
$GPGGA,154408.800,4943.52404,N,01323.35801,E,1,10,0.9,304.7,M,46.0,M,,*53
$GPGLL,4943.52404,N,01323.35801,E,154408.800,A*31
$GPRMC,154408.800,A,4943.52404,N,01323.35801,E,2.20,279.8,021210,0.0,E*59
$GPVTG,279.8,T,279.8,M,2.20,N,4.07,K*4D
$GPGSA,A,3,17,20,23,28,,,,,,,,,1.3,0.9,1.0*37
$GPGSV,3,1,09,23,07,195,32,17,24,313,31,20,48,253,30,14,32,049,29*70
$GPGSV,3,2,09,32,79,251,27,11,76,243,26,24,76,112,25,31,08,111,24*72
$GPGGA,154409.800,4943.52428,N,01323.35788,E,1,10,0.9,305.1,M,46.0,M,,*55
$GPGLL,4943.52428,N,01323.35788,E,154409.800,A*30
$GPRMC,154409.800,A,4943.52428,N,01323.35788,E,2.00,285.1,021210,0.0,E*50
$GPVTG,285.1,T,285.1,M,2.00,N,3.70,K*48
$GPGGA,154410.800,4943.52486,N,01323.35831,E,1,10,0.9,305.6,M,46.0,M,,*53
$GPGLL,4943.52486,N,01323.35831,E,154410.800,A*31
$GPRMC,154410.800,A,4943.52486,N,01323.35831,E,1.80,298.8,021210,0.0,E*5F
$GPVTG,298.8,T,298.8,M,1.80,N,3.33,K*44
$GPGGA,154411.800,4943.52456,N,01323.35404,E,1,10,0.9,305.2,M,46.0,M,,*51
$GPGLL,4943.52456,N,01323.35404,E,154411.800,A*37
$GPRMC,154411.800,A,4943.52456,N,01323.35404,E,2.70,280.0,021210,0.0,E*54
$GPVTG,280.0,T,280.0,M,2.70,N,5.00,K*4E
$GPGGA,154412.800,4943.52451,N,01323.35269,E,1,10,0.9,305.7,M,46.0,M,,*5D
$GPGLL,4943.52451,N,01323.35269,E,154412.800,A*3E
$GPRMC,154412.800,A,4943.52451,N,01323.35269,E,2.50,278.6,021210,0.0,E*5E
$GPVTG,278.6,T,278.6,M,2.50,N,4.63,K*48
$GPGGA,154413.800,4943.52476,N,01323.35168,E,1,10,0.9,306.0,M,46.0,M,,*5F
$GPGLL,4943.52476,N,01323.35168,E,154413.800,A*38
$GPRMC,154413.800,A,4943.52476,N,01323.35168,E,2.20,280.3,021210,0.0,E*5D
$GPVTG,280.3,T,280.3,M,2.20,N,4.07,K*4D
$GPGSA,A,3,14,17,19,20,23,24,28,31,32,,,,1.3,0.9,1.0*3F
$GPGSV,3,1,09,23,07,195,31,17,24,313,31,20,48,253,30,19,22,175,26*7E
$GPGSV,3,2,09,14,32,049,26,11,76,243,25,32,79,251,24,24,76,112,23*74
$GPGGA,154415.800,4943.52536,N,01323.34926,E,1,10,0.9,305.9,M,46.0,M,,*55
$GPGLL,4943.52536,N,01323.34926,E,154415.800,A*38
$GPRMC,154415.800,A,4943.52536,N,01323.34926,E,2.50,284.9,021210,0.0,E*54
$GPVTG,284.9,T,284.9,M,2.50,N,4.63,K*48
$GPGGA,154416.800,4943.52548,N,01323.34829,E,1,10,0.9,306.0,M,46.0,M,,*5B
$GPGLL,4943.52548,N,01323.34829,E,154416.800,A*3C
$GPRMC,154416.800,A,4943.52548,N,01323.34829,E,2.30,278.1,021210,0.0,E*5D
$GPVTG,278.1,T,278.1,M,2.30,N,4.26,K*4F
$GPGGA,154417.800,4943.52604,N,01323.34708,E,1,10,0.9,305.8,M,46.0,M,,*56
$GPGLL,4943.52604,N,01323.34708,E,154417.800,A*3A
$GPRMC,154417.800,A,4943.52604,N,01323.34708,E,2.40,282.7,021210,0.0,E*5F
$GPVTG,282.7,T,282.7,M,2.40,N,4.44,K*4C
$GPGGA,154418.800,4943.52624,N,01323.34596,E,1,10,0.9,305.0,M,46.0,M,,*56
$GPGLL,4943.52624,N,01323.34596,E,154418.800,A*32
$GPRMC,154418.800,A,4943.52624,N,01323.34596,E,2.40,283.6,021210,0.0,E*57
$GPVTG,283.6,T,283.6,M,2.40,N,4.44,K*4C
$GPGGA,154419.800,4943.52564,N,01323.34447,E,1,10,0.9,304.5,M,46.0,M,,*59
$GPGLL,4943.52564,N,01323.34447,E,154419.800,A*39
$GPRMC,154419.800,A,4943.52564,N,01323.34447,E,2.40,275.9,021210,0.0,E*5A
$GPVTG,275.9,T,275.9,M,2.40,N,4.44,K*4C
$GPGSA,A,3,14,17,19,20,23,24,28,31,32,,,,1.3,0.9,1.0*3F
$GPGSV,3,1,09,17,24,313,32,20,48,253,30,23,07,195,28,14,32,049,28*79
$GPGSV,3,2,09,31,08,111,25,19,22,175,24,32,79,251,24,11,76,243,24*7D
$GPGGA,154420.800,4943.52607,N,01323.34287,E,1,10,0.9,304.4,M,46.0,M,,*5E
$GPGLL,4943.52607,N,01323.34287,E,154420.800,A*3F
$GPRMC,154420.800,A,4943.52607,N,01323.34287,E,2.50,281.8,021210,0.0,E*57
$GPVTG,281.8,T,281.8,M,2.50,N,4.63,K*48
$GPGGA,154421.800,4943.52602,N,01323.34084,E,1,10,0.9,304.5,M,46.0,M,,*5A
$GPGLL,4943.52602,N,01323.34084,E,154421.800,A*3A
$GPRMC,154421.800,A,4943.52602,N,01323.34084,E,2.60,276.8,021210,0.0,E*59
$GPVTG,276.8,T,276.8,M,2.60,N,4.82,K*44
$GPGGA,154422.800,4943.52574,N,01323.33944,E,1,10,0.9,305.3,M,46.0,M,,*5E
$GPGLL,4943.52574,N,01323.33944,E,154422.800,A*39
$GPRMC,154422.800,A,4943.52574,N,01323.33944,E,2.40,270.4,021210,0.0,E*52
$GPVTG,270.4,T,270.4,M,2.40,N,4.44,K*4C
$GPGGA,154423.800,4943.52604,N,01323.33739,E,1,10,0.9,305.8,M,46.0,M,,*54
$GPGLL,4943.52604,N,01323.33739,E,154423.800,A*38
$GPRMC,154423.800,A,4943.52604,N,01323.33739,E,3.20,271.7,021210,0.0,E*56
$GPVTG,271.7,T,271.7,M,3.20,N,5.93,K*40
$GPGGA,154424.800,4943.52663,N,01323.33638,E,1,10,0.9,305.0,M,46.0,M,,*5A
$GPGLL,4943.52663,N,01323.33638,E,154424.800,A*3E
$GPRMC,154424.800,A,4943.52663,N,01323.33638,E,2.90,273.5,021210,0.0,E*5A
$GPVTG,273.5,T,273.5,M,2.90,N,5.37,K*44
$GPGSA,A,3,14,17,19,20,23,24,28,31,32,,,,1.3,0.9,1.0*3F
$GPGSV,3,1,09,17,24,313,30,20,48,253,30,28,09,272,29,14,32,049,28*75
$GPGSV,3,2,09,32,80,253,26,24,76,112,25,11,76,243,25,31,08,109,24*7D
$GPGGA,154425.800,4943.52656,N,01323.33491,E,1,10,0.9,304.4,M,46.0,M,,*59
$GPGLL,4943.52656,N,01323.33491,E,154425.800,A*38
$GPRMC,154425.800,A,4943.52656,N,01323.33491,E,2.60,272.4,021210,0.0,E*53
$GPVTG,272.4,T,272.4,M,2.60,N,4.82,K*44
$GPGGA,154426.800,4943.52699,N,01323.33403,E,1,10,0.9,304.3,M,46.0,M,,*55
$GPGLL,4943.52699,N,01323.33403,E,154426.800,A*33
$GPRMC,154426.800,A,4943.52699,N,01323.33403,E,2.30,276.1,021210,0.0,E*5C
$GPVTG,276.1,T,276.1,M,2.30,N,4.26,K*4F
$GPGGA,154427.800,4943.52692,N,01323.33298,E,1,10,0.9,304.5,M,46.0,M,,*5D
$GPGLL,4943.52692,N,01323.33298,E,154427.800,A*3D
$GPRMC,154427.800,A,4943.52692,N,01323.33298,E,1.80,273.6,021210,0.0,E*58
$GPVTG,273.6,T,273.6,M,1.80,N,3.33,K*44
$GPGGA,154428.800,4943.52724,N,01323.33203,E,1,10,0.9,304.7,M,46.0,M,,*5E
$GPGLL,4943.52724,N,01323.33203,E,154428.800,A*3C
$GPRMC,154428.800,A,4943.52724,N,01323.33203,E,2.00,275.7,021210,0.0,E*55
$GPVTG,275.7,T,275.7,M,2.00,N,3.70,K*48
$GPGGA,154429.800,4943.52729,N,01323.33123,E,1,10,0.9,305.2,M,46.0,M,,*57
$GPGLL,4943.52729,N,01323.33123,E,154429.800,A*31
$GPRMC,154429.800,A,4943.52729,N,01323.33123,E,2.20,276.7,021210,0.0,E*59
$GPVTG,276.7,T,276.7,M,2.20,N,4.07,K*4D
$GPGSA,A,3,14,17,19,20,23,24,28,31,32,,,,1.3,0.9,1.0*3F
$GPGSV,3,1,09,20,47,251,31,17,23,313,30,31,07,111,28,23,06,195,28*7C
$GPGSV,3,2,09,32,78,248,27,19,23,175,26,14,33,050,25,24,77,111,24*7C
$GPGGA,154430.800,4943.52736,N,01323.33031,E,1,10,0.9,305.0,M,46.0,M,,*51
$GPGLL,4943.52736,N,01323.33031,E,154430.800,A*35
$GPRMC,154430.800,A,4943.52736,N,01323.33031,E,2.00,274.3,021210,0.0,E*59
$GPVTG,274.3,T,274.3,M,2.00,N,3.70,K*48
$GPGGA,154431.800,4943.52729,N,01323.32931,E,1,10,0.9,305.3,M,46.0,M,,*55
$GPGLL,4943.52729,N,01323.32931,E,154431.800,A*32
