$GPGGA,181049.352,4943.8309,N,01323.6854,E,0,03,,346.8,M,46.4,M,,0000*7A
$GPGLL,4943.8309,N,01323.6854,E,181049.352,V,N*44
$GPGSA,A,1,29,25,05,,,,,,,,,,,,*17
$GPGSV,3,1,11,29,53,070,25,31,37,225,,25,30,134,24,05,20,052,17*77
$GPGSV,3,2,11,21,58,178,,30,54,297,,16,26,305,,06,12,266,*74
$GPGSV,3,3,11,13,04,341,,18,02,156,,23,02,312,*43
$GPRMC,181049.352,V,4943.8309,N,01323.6854,E,,,180612,,,N*7F
$GPVTG,,T,,M,,N,,K,N*2C
$GPGGA,181050.352,4943.8325,N,01323.7001,E,0,03,,346.8,M,46.4,M,,0000*75
$GPGLL,4943.8325,N,01323.7001,E,181050.352,V,N*4B
$GPGSA,A,1,29,25,05,,,,,,,,,,,,*17
$GPGSV,3,1,11,29,53,070,25,31,37,225,,25,30,134,24,05,20,052,17*77
$GPGSV,3,2,11,21,58,178,,30,54,297,,16,26,305,,06,12,266,*74
$GPGSV,3,3,11,13,04,341,,18,02,156,,23,02,312,*43
$GPRMC,181050.352,V,4943.8325,N,01323.7001,E,,,180612,,,N*70
$GPVTG,,T,,M,,N,,K,N*2C
$GPGGA,181051.352,4943.8317,N,01323.6915,E,0,03,,346.8,M,46.4,M,,0000*78
$GPGLL,4943.8317,N,01323.6915,E,181051.352,V,N*46
$GPGSA,A,1,29,25,05,,,,,,,,,,,,*17
$GPGSV,3,1,11,29,53,070,30,31,37,225,,25,30,134,24,05,20,052,17*73
$GPGSV,3,2,11,21,58,178,,30,54,297,,16,26,305,,06,12,266,*74
$GPGSV,3,3,11,13,04,341,,18,02,156,,23,02,312,*43
$GPRMC,181051.352,V,4943.8317,N,01323.6915,E,,,180612,,,N*7D
$GPVTG,,T,,M,,N,,K,N*2C
$GPGGA,181052.352,4943.8336,N,01323.7000,E,0,03,,346.8,M,46.4,M,,0000*74
$GPGLL,4943.8336,N,01323.7000,E,181052.352,V,N*4A
$GPGSA,A,1,29,25,05,,,,,,,,,,,,*17
$GPGSV,3,1,11,29,53,070,30,31,37,225,,25,30,134,24,05,20,052,17*73
$GPGSV,3,2,11,21,58,178,,30,54,297,,16,26,305,,06,12,266,*74
$GPGSV,3,3,11,13,04,341,,18,02,156,,23,02,312,*43
$GPRMC,181052.352,V,4943.8336,N,01323.7000,E,,,180612,,,N*71
$GPVTG,,T,,M,,N,,K,N*2C
$GPGGA,181053.352,4943.8333,N,01323.7007,E,0,03,,346.8,M,46.4,M,,0000*77
$GPGLL,4943.8333,N,01323.7007,E,181053.352,V,N*49
$GPGSA,A,1,29,25,05,,,,,,,,,,,,*17
$GPGSV,3,1,11,29,53,070,29,31,37,225,,25,30,134,25,05,20,052,17*7A
$GPGSV,3,2,11,21,58,178,,30,54,297,,16,26,305,,06,12,266,*74
$GPGSV,3,3,11,13,04,341,,18,02,156,,23,02,312,*43
$GPRMC,181053.352,V,4943.8333,N,01323.7007,E,,,180612,,,N*72
$GPVTG,,T,,M,,N,,K,N*2C
$GPGGA,181054.352,4943.8334,N,01323.7037,E,0,03,,346.8,M,46.4,M,,0000*74
$GPGLL,4943.8334,N,01323.7037,E,181054.352,V,N*4A
$GPGSA,A,1,29,25,05,,,,,,,,,,,,*17
$GPGSV,3,1,11,29,53,070,29,31,37,225,,25,30,134,25,05,20,052,16*7B
$GPGSV,3,2,11,21,58,178,,30,54,297,,16,26,305,,06,12,266,*74
$GPGSV,3,3,11,13,04,341,,18,02,156,,23,02,312,*43
$GPRMC,181054.352,V,4943.8334,N,01323.7037,E,,,180612,,,N*71
$GPVTG,,T,,M,,N,,K,N*2C
$GPGGA,181055.352,4943.8326,N,01323.7009,E,0,03,,346.8,M,46.4,M,,0000*7B
$GPGLL,4943.8326,N,01323.7009,E,181055.352,V,N*45
$GPGSA,A,1,29,25,05,,,,,,,,,,,,*17
$GPGSV,3,1,11,29,53,070,26,31,37,225,,25,30,134,25,05,20,052,16*74
$GPGSV,3,2,11,21,58,178,,30,54,297,,16,26,305,,06,12,266,*74
$GPGSV,3,3,11,13,04,341,,18,02,156,,23,02,312,*43
$GPRMC,181055.352,V,4943.8326,N,01323.7009,E,,,180612,,,N*7E
$GPVTG,,T,,M,,N,,K,N*2C
$GPGGA,181056.352,4943.8305,N,01323.6755,E,0,03,,346.8,M,46.4,M,,0000*76
$GPGLL,4943.8305,N,01323.6755,E,181056.352,V,N*48
$GPGSA,A,1,29,25,05,,,,,,,,,,,,*17
$GPGSV,3,1,11,29,53,070,26,31,37,225,,25,30,134,25,05,20,052,16*74
$GPGSV,3,2,11,21,58,178,,30,54,297,,16,26,305,,06,12,266,*74
$GPGSV,3,3,11,13,04,341,,18,02,156,,23,02,312,*43
$GPRMC,181056.352,V,4943.8305,N,01323.6755,E,,,180612,,,N*73
$GPVTG,,T,,M,,N,,K,N*2C
$GPGGA,181057.352,4943.8304,N,01323.6947,E,0,03,,346.8,M,46.4,M,,0000*7B
$GPGLL,4943.8304,N,01323.6947,E,181057.352,V,N*45
$GPGSA,A,1,29,25,05,,,,,,,,,,,,*17
$GPGSV,3,1,11,29,53,070,26,31,37,225,,25,30,134,25,05,20,052,16*74
$GPGSV,3,2,11,21,58,178,,30,54,297,,16,26,305,,06,12,266,*74
$GPGSV,3,3,11,13,04,341,,18,02,156,,23,02,312,*43
$GPRMC,181057.352,V,4943.8304,N,01323.6947,E,,,180612,,,N*7E
$GPVTG,,T,,M,,N,,K,N*2C
$GPGGA,181058.352,4943.8288,N,01323.6542,E,0,03,,346.8,M,46.4,M,,0000*78
$GPGLL,4943.8288,N,01323.6542,E,181058.352,V,N*46
$GPGSA,A,1,29,25,05,,,,,,,,,,,,*17
$GPGSV,3,1,11,29,53,070,27,31,37,225,,25,30,134,25,05,20,052,16*75
$GPGSV,3,2,11,21,58,178,,30,54,297,,16,26,305,,06,12,266,*74
$GPGSV,3,3,11,13,04,341,,18,02,156,,23,02,312,*43
$GPRMC,181058.352,V,4943.8288,N,01323.6542,E,,,180612,,,N*7D
$GPVTG,,T,,M,,N,,K,N*2C
$GPGGA,181059.352,4943.8305,N,01323.6839,E,0,03,,346.8,M,46.4,M,,0000*7C
$GPGLL,4943.8305,N,01323.6839,E,181059.352,V,N*42
$GPGSA,A,1,29,25,05,,,,,,,,,,,,*17
$GPGSV,3,1,11,29,53,070,27,31,37,225,,25,30,134,25,05,20,052,16*75
$GPGSV,3,2,11,21,58,178,,30,54,297,,16,26,305,,06,12,266,*74
$GPGSV,3,3,11,13,04,341,,18,02,156,,23,02,312,*43
$GPRMC,181059.352,V,4943.8305,N,01323.6839,E,,,180612,,,N*79
$GPVTG,,T,,M,,N,,K,N*2C
$GPGGA,181100.352,4943.8318,N,01323.7060,E,0,03,,346.8,M,46.4,M,,0000*78
$GPGLL,4943.8318,N,01323.7060,E,181100.352,V,N*46
$GPGSA,A,1,29,25,05,,,,,,,,,,,,*17
$GPGSV,3,1,11,29,53,070,27,31,37,225,,25,30,134,25,05,20,052,16*75
$GPGSV,3,2,11,21,58,178,,30,54,297,,16,26,305,,06,12,266,*74
$GPGSV,3,3,11,13,04,341,,18,02,156,,23,02,312,*43
$GPRMC,181100.352,V,4943.8318,N,01323.7060,E,,,180612,,,N*7D
$GPVTG,,T,,M,,N,,K,N*2C
$GPGGA,181101.352,4943.8311,N,01323.6892,E,0,03,,346.8,M,46.4,M,,0000*74
$GPGLL,4943.8311,N,01323.6892,E,181101.352,V,N*4A
$GPGSA,A,1,29,25,05,,,,,,,,,,,,*17
$GPGSV,3,1,11,29,53,070,27,31,37,225,,25,30,134,25,05,20,052,16*75
$GPGSV,3,2,11,21,58,178,,30,54,297,,16,26,305,,06,12,266,*74
$GPGSV,3,3,11,13,04,341,,18,02,156,,23,02,312,*43
$GPRMC,181101.352,V,4943.8311,N,01323.6892,E,,,180612,,,N*71
$GPVTG,,T,,M,,N,,K,N*2C
$GPGGA,181102.352,4943.8300,N,01323.6613,E,0,03,,346.8,M,46.4,M,,0000*70
$GPGLL,4943.8300,N,01323.6613,E,181102.352,V,N*4E
$GPGSA,A,1,29,25,05,,,,,,,,,,,,*17
$GPGSV,3,1,11,29,53,070,27,31,37,225,,25,30,134,26,05,20,052,16*76
$GPGSV,3,2,11,21,58,178,,30,54,297,,16,26,305,,06,12,266,*74
$GPGSV,3,3,11,13,04,341,,18,02,156,,23,02,312,*43
$GPRMC,181102.352,V,4943.8300,N,01323.6613,E,,,180612,,,N*75
$GPVTG,,T,,M,,N,,K,N*2C
$GPGGA,181103.352,4943.8299,N,01323.6643,E,0,03,,346.8,M,46.4,M,,0000*75
$GPGLL,4943.8299,N,01323.6643,E,181103.352,V,N*4B
$GPGSA,A,1,29,25,05,,,,,,,,,,,,*17
$GPGSV,3,1,11,29,53,070,27,31,37,225,,25,30,134,26,05,20,052,16*76
$GPGSV,3,2,11,21,58,178,,30,54,297,,16,26,305,,06,12,266,*74
$GPGSV,3,3,11,13,04,341,,18,02,156,,23,02,312,*43
$GPRMC,181103.352,V,4943.8299,N,01323.6643,E,,,180612,,,N*70
$GPVTG,,T,,M,,N,,K,N*2C
$GPGGA,181104.352,4943.8306,N,01323.6821,E,0,03,,346.8,M,46.4,M,,0000*7F
$GPGLL,4943.8306,N,01323.6821,E,181104.352,V,N*41
$GPGSA,A,1,29,25,05,,,,,,,,,,,,*17
$GPGSV,3,1,11,29,53,070,27,31,37,225,12,25,30,134,26,05,20,052,16*75
$GPGSV,3,2,11,21,58,178,,30,54,297,,16,26,305,,06,12,266,*74
$GPGSV,3,3,11,13,04,341,,18,02,156,,23,02,312,*43
$GPRMC,181104.352,V,4943.8306,N,01323.6821,E,,,180612,,,N*7A
$GPVTG,,T,,M,,N,,K,N*2C
$GPGGA,181105.352,4943.8304,N,01323.6985,E,1,04,1.7,346.0,M,46.4,M,,0000*55
$GPGLL,4943.8304,N,01323.6985,E,181105.352,A,A*55
$GPGSA,A,3,29,25,05,31,,,,,,,,,3.5,1.7,3.1*3B
$GPGSV,3,1,11,29,53,070,27,31,37,225,12,25,30,134,26,05,20,052,16*75
$GPGSV,3,2,11,21,58,178,,30,54,297,,16,26,305,,06,12,266,*74
$GPGSV,3,3,11,13,04,341,,18,02,156,,23,02,312,*43
$GPRMC,181105.352,A,4943.8304,N,01323.6985,E,2.16,260.59,180612,,,A*63
$GPVTG,260.59,T,,M,2.16,N,4.0,K,A*04
$GPGGA,181106.352,4943.8305,N,01323.6964,E,1,04,1.7,343.5,M,46.4,M,,0000*58
$GPGLL,4943.8305,N,01323.6964,E,181106.352,A,A*58
$GPGSA,A,3,29,25,05,31,,,,,,,,,3.5,1.7,3.1*3B
$GPGSV,3,1,11,29,53,070,27,31,37,225,12,25,30,134,26,05,20,052,15*76
$GPGSV,3,2,11,21,58,178,,30,54,297,,16,26,305,,06,12,266,*74
$GPGSV,3,3,11,13,04,341,,18,02,156,,23,02,312,*43
$GPRMC,181106.352,A,4943.8305,N,01323.6964,E,2.10,262.22,180612,,,A*66
$GPVTG,262.22,T,,M,2.10,N,3.9,K,A*02
$GPGGA,181107.352,4943.8300,N,01323.6971,E,1,04,1.7,347.4,M,46.4,M,,0000*5D
$GPGLL,4943.8300,N,01323.6971,E,181107.352,A,A*58
$GPGSA,A,3,29,25,05,31,,,,,,,,,3.5,1.7,3.1*3B
$GPGSV,3,1,11,29,53,070,27,31,37,225,12,25,30,134,26,05,20,052,15*76
$GPGSV,3,2,11,21,58,178,,30,54,297,,16,26,305,,06,12,266,*74
$GPGSV,3,3,11,13,04,341,,18,02,156,,23,02,312,*43
$GPRMC,181107.352,A,4943.8300,N,01323.6971,E,2.12,267.14,180612,,,A*64
$GPVTG,267.14,T,,M,2.12,N,3.9,K,A*00
$GPGGA,181108.352,4943.8297,N,01323.6976,E,1,04,1.7,348.8,M,46.4,M,,0000*59
$GPGLL,4943.8297,N,01323.6976,E,181108.352,A,A*5F
$GPGSA,A,3,29,25,05,31,,,,,,,,,3.5,1.7,3.1*3B
$GPGSV,3,1,11,29,53,070,27,31,37,225,12,25,30,134,25,05,20,052,15*75
$GPGSV,3,2,11,21,58,178,,30,54,297,,16,26,305,,06,12,266,*74
$GPGSV,3,3,11,13,04,341,,18,02,156,,23,02,312,*43
$GPRMC,181108.352,A,4943.8297,N,01323.6976,E,2.02,275.78,180612,,,A*6B
$GPVTG,275.78,T,,M,2.02,N,3.7,K,A*06
$GPGGA,181109.352,4943.8284,N,01323.6965,E,1,04,1.7,354.7,M,46.4,M,,0000*5A
$GPGLL,4943.8284,N,01323.6965,E,181109.352,A,A*5E
$GPGSA,A,3,29,25,05,31,,,,,,,,,3.5,1.7,3.1*3B
$GPGSV,3,1,11,29,53,070,27,31,37,225,12,25,30,134,25,05,20,052,15*75
$GPGSV,3,2,11,21,58,178,,30,54,297,,16,26,305,,06,12,266,*74
$GPGSV,3,3,11,13,04,341,,18,02,156,,23,02,312,*43
$GPRMC,181109.352,A,4943.8284,N,01323.6965,E,1.73,288.27,180612,,,A*67
$GPVTG,288.27,T,,M,1.73,N,3.2,K,A*0E
$GPGGA,181110.352,4943.8284,N,01323.6944,E,1,04,1.7,356.9,M,46.4,M,,0000*5D
$GPGLL,4943.8284,N,01323.6944,E,181110.352,A,A*55
$GPGSA,A,3,29,25,05,31,,,,,,,,,3.5,1.7,3.1*3B
$GPGSV,3,1,11,29,53,070,27,31,37,225,12,25,30,134,25,05,20,052,15*75
$GPGSV,3,2,11,21,58,178,,30,54,297,,16,26,305,,06,12,266,*74
$GPGSV,3,3,11,13,04,341,,18,02,156,,23,02,312,*43
$GPRMC,181110.352,A,4943.8284,N,01323.6944,E,2.08,295.58,180612,,,A*67
$GPVTG,295.58,T,,M,2.08,N,3.9,K,A*0E
$GPGGA,181111.352,4943.8291,N,01323.6917,E,1,04,1.7,356.3,M,46.4,M,,0000*54
$GPGLL,4943.8291,N,01323.6917,E,181111.352,A,A*56
$GPGSA,A,3,29,25,05,31,,,,,,,,,3.5,1.7,3.1*3B
$GPGSV,3,1,11,29,53,070,27,31,37,225,12,25,30,134,25,05,20,052,15*75
$GPGSV,3,2,11,21,58,178,,30,54,297,,16,26,305,,06,12,266,*74
$GPGSV,3,3,11,13,04,341,,18,02,156,,23,02,312,*43
$GPRMC,181111.352,A,4943.8291,N,01323.6917,E,2.07,295.60,180612,,,A*60
$GPVTG,295.60,T,,M,2.07,N,3.8,K,A*0B
$GPGGA,181112.352,4943.8289,N,01323.6897,E,1,04,1.7,357.5,M,46.4,M,,0000*50
$GPGLL,4943.8289,N,01323.6897,E,181112.352,A,A*55
$GPGSA,A,3,29,25,05,31,,,,,,,,,3.5,1.7,3.1*3B
$GPGSV,3,1,11,29,53,070,28,31,37,225,12,25,30,134,25,05,20,052,15*7A
$GPGSV,3,2,11,21,58,178,,30,54,297,,16,26,305,,06,12,266,*74
$GPGSV,3,3,11,13,04,341,,18,02,156,,23,02,312,*43
$GPRMC,181112.352,A,4943.8289,N,01323.6897,E,2.24,304.65,180612,,,A*6E
$GPVTG,304.65,T,,M,2.24,N,4.2,K,A*0B
$GPGGA,181113.352,4943.8284,N,01323.6893,E,1,04,1.7,356.7,M,46.4,M,,0000*5B
$GPGLL,4943.8284,N,01323.6893,E,181113.352,A,A*5D
$GPGSA,A,3,29,25,05,31,,,,,,,,,3.5,1.7,3.1*3B
$GPGSV,3,1,11,29,53,070,28,31,37,225,12,25,30,134,25,05,20,052,15*7A
$GPGSV,3,2,11,21,58,178,,30,54,297,,16,26,305,,06,12,266,*74
$GPGSV,3,3,11,13,04,341,,18,02,156,,23,02,312,*43
$GPRMC,181113.352,A,4943.8284,N,01323.6893,E,2.35,300.07,180612,,,A*66
$GPVTG,300.07,T,,M,2.35,N,4.3,K,A*0A
$GPGGA,181114.352,4943.8278,N,01323.6890,E,1,04,1.7,357.9,M,46.4,M,,0000*53
$GPGLL,4943.8278,N,01323.6890,E,181114.352,A,A*5A
$GPGSA,A,3,29,25,05,31,,,,,,,,,3.5,1.7,3.1*3B
$GPGSV,3,1,11,29,53,070,28,31,37,225,12,25,30,134,25,05,20,052,15*7A
$GPGSV,3,2,11,21,58,178,,30,54,297,,16,26,305,,06,12,266,*74
$GPGSV,3,3,11,13,04,341,,18,02,156,,23,02,312,*43
$GPRMC,181114.352,A,4943.8278,N,01323.6890,E,1.84,275.46,180612,,,A*6E
$GPVTG,275.46,T,,M,1.84,N,3.4,K,A*05
$GPGGA,181115.352,4943.8280,N,01323.6878,E,1,04,1.7,356.4,M,46.4,M,,0000*5F
$GPGLL,4943.8280,N,01323.6878,E,181115.352,A,A*5A
$GPGSA,A,3,29,25,05,31,,,,,,,,,3.5,1.7,3.1*3B
$GPGSV,3,1,11,29,53,070,28,31,37,225,12,25,30,134,25,05,20,052,15*7A
$GPGSV,3,2,11,21,58,178,,30,54,297,,16,26,305,,06,12,266,*74
$GPGSV,3,3,11,13,04,341,,18,02,156,,23,02,312,*43
$GPRMC,181115.352,A,4943.8280,N,01323.6878,E,1.95,269.93,180612,,,A*6B
$GPVTG,269.93,T,,M,1.95,N,3.6,K,A*02
$GPGGA,181116.353,4943.8278,N,01323.6875,E,1,04,1.7,355.3,M,46.4,M,,0000*53
$GPGLL,4943.8278,N,01323.6875,E,181116.353,A,A*52
$GPGSA,A,3,29,25,05,31,,,,,,,,,3.5,1.7,3.1*3B
$GPGSV,3,1,11,29,53,070,28,31,37,225,12,25,30,134,25,05,20,052,15*7A
$GPGSV,3,2,11,21,58,178,,30,54,297,,16,26,305,,06,12,266,*74
$GPGSV,3,3,11,13,04,341,,18,02,156,,23,02,312,*43
$GPRMC,181116.353,A,4943.8278,N,01323.6875,E,1.89,271.04,180612,,,A*69
$GPVTG,271.04,T,,M,1.89,N,3.5,K,A*0B
$GPGGA,181117.353,4943.8275,N,01323.6868,E,1,04,1.7,353.3,M,46.4,M,,0000*55
$GPGLL,4943.8275,N,01323.6868,E,181117.353,A,A*52
$GPGSA,A,3,29,25,05,31,,,,,,,,,3.5,1.7,3.1*3B
$GPGSV,3,1,11,29,53,070,28,31,37,225,12,25,30,134,25,05,20,052,14*7B
$GPGSV,3,2,11,21,58,178,,30,54,297,,16,26,305,,06,12,266,*74
$GPGSV,3,3,11,13,04,341,,18,02,156,,23,02,312,*43
$GPRMC,181117.353,A,4943.8275,N,01323.6868,E,1.51,250.26,180612,,,A*6F
$GPVTG,250.26,T,,M,1.51,N,2.8,K,A*01
$GPGGA,181118.353,4943.8270,N,01323.6863,E,1,04,1.7,351.4,M,46.4,M,,0000*51
$GPGLL,4943.8270,N,01323.6863,E,181118.353,A,A*53
$GPGSA,A,3,29,25,05,31,,,,,,,,,3.5,1.7,3.1*3B
$GPGSV,3,1,11,29,53,070,28,31,37,225,12,25,30,134,25,05,20,052,14*7B
$GPGSV,3,2,11,21,58,178,,30,54,297,,16,26,305,,06,12,266,*74
$GPGSV,3,3,11,13,04,341,,18,02,156,,23,02,312,*43
$GPRMC,181118.353,A,4943.8270,N,01323.6863,E,1.34,236.96,180612,,,A*66
$GPVTG,236.96,T,,M,1.34,N,2.5,K,A*04
$GPGGA,181119.353,4943.8269,N,01323.6849,E,1,04,1.7,349.2,M,46.4,M,,0000*5F
$GPGLL,4943.8269,N,01323.6849,E,181119.353,A,A*52
$GPGSA,A,3,29,25,05,31,,,,,,,,,3.5,1.7,3.1*3B
$GPGSV,3,1,11,29,53,070,28,31,37,225,12,25,30,134,25,05,20,052,15*7A
$GPGSV,3,2,11,21,58,178,,30,54,297,,16,26,305,,06,12,266,*74
$GPGSV,3,3,11,13,04,341,,18,02,156,,23,02,312,*43
$GPRMC,181119.353,A,4943.8269,N,01323.6849,E,0.84,231.70,180612,,,A*62
$GPVTG,231.70,T,,M,0.84,N,1.6,K,A*01
$GPGGA,181120.353,4943.8268,N,01323.6844,E,1,04,1.7,347.7,M,46.4,M,,0000*52
$GPGLL,4943.8268,N,01323.6844,E,181120.353,A,A*54
$GPGSA,A,3,29,25,05,31,,,,,,,,,3.5,1.7,3.1*3B
$GPGSV,3,1,11,29,53,070,28,31,37,225,12,25,30,134,25,05,20,052,15*7A
$GPGSV,3,2,11,21,58,178,,30,54,297,,16,26,305,,06,12,266,*74
$GPGSV,3,3,11,13,04,341,,18,02,156,,23,02,312,*43
$GPRMC,181120.353,A,4943.8268,N,01323.6844,E,0.46,230.04,180612,,,A*68
$GPVTG,230.04,T,,M,0.46,N,0.9,K,A*03
$GPGGA,181121.353,4943.8268,N,01323.6842,E,1,03,12.9,347.3,M,46.4,M,,0000*6A
$GPGLL,4943.8268,N,01323.6842,E,181121.353,A,A*53
$GPGSA,A,2,29,25,05,,,,,,,,,,13.3,12.9,3.2*30
$GPGSV,3,1,11,29,53,070,28,31,37,225,,25,30,134,24,05,20,052,15*78
$GPGSV,3,2,11,21,58,178,,30,54,297,,16,26,305,,06,12,266,*74
$GPGSV,3,3,11,13,04,341,,18,02,156,,23,02,312,*43
$GPRMC,181121.353,A,4943.8268,N,01323.6842,E,0.47,263.62,180612,,,A*68
$GPVTG,263.62,T,,M,0.47,N,0.9,K,N*0B
$GPGGA,181122.353,4943.8265,N,01323.6839,E,1,03,12.9,349.1,M,46.4,M,,0000*64
$GPGLL,4943.8265,N,01323.6839,E,181122.353,A,A*51
$GPGSA,A,2,29,25,05,,,,,,,,,,13.3,12.9,3.2*30
$GPGSV,3,1,11,29,53,070,29,31,37,225,,25,30,134,24,05,20,052,15*79
$GPGSV,3,2,11,21,58,178,,30,54,297,,16,26,305,,06,12,266,*74
$GPGSV,3,3,11,13,04,341,,18,02,156,,23,02,312,*43
$GPRMC,181122.353,A,4943.8265,N,01323.6839,E,0.92,245.05,180612,,,A*67
$GPVTG,245.05,T,,M,0.92,N,1.7,K,N*09
$GPGGA,181123.353,4943.8264,N,01323.6831,E,1,03,12.9,350.7,M,46.4,M,,0000*62
$GPGLL,4943.8264,N,01323.6831,E,181123.353,A,A*59
$GPGSA,A,2,29,25,05,,,,,,,,,,13.3,12.9,3.2*30
$GPGSV,3,1,11,29,53,070,29,31,37,225,,25,30,134,24,05,20,052,15*79
$GPGSV,3,2,11,21,58,178,,30,54,297,,16,26,305,,06,12,266,*74
$GPGSV,3,3,11,13,04,341,,18,02,156,,23,02,312,*43
$GPRMC,181123.353,A,4943.8264,N,01323.6831,E,1.75,247.60,180612,,,A*66
$GPVTG,247.60,T,,M,1.75,N,3.2,K,N*07
$GPGGA,181124.353,4943.8261,N,01323.6819,E,1,03,12.9,352.0,M,46.4,M,,0000*6F
$GPGLL,4943.8261,N,01323.6819,E,181124.353,A,A*51
$GPGSA,A,2,29,25,05,,,,,,,,,,13.3,12.9,3.2*30
$GPGSV,3,1,11,29,53,070,29,31,37,225,,25,30,134,24,05,20,052,15*79
$GPGSV,3,2,11,21,58,178,,30,54,297,,16,26,305,,06,12,266,*74
$GPGSV,3,3,11,13,04,341,,18,02,156,,23,02,312,*43
$GPRMC,181124.353,A,4943.8261,N,01323.6819,E,2.58,250.11,180612,,,A*62
$GPVTG,250.11,T,,M,2.58,N,4.8,K,N*06
$GPGGA,181125.353,4943.8258,N,01323.6803,E,1,03,13.0,352.2,M,46.4,M,,0000*65
$GPGLL,4943.8258,N,01323.6803,E,181125.353,A,A*51
$GPGSA,A,2,29,25,05,,,,,,,,,,13.3,13.0,3.2*38
$GPGSV,3,1,11,29,53,070,29,31,37,225,,25,30,134,24,05,20,052,15*79
$GPGSV,3,2,11,21,58,178,,30,54,297,,16,26,305,,06,12,266,*74
$GPGSV,3,3,11,13,04,341,,18,02,156,,23,02,312,*43
$GPRMC,181125.353,A,4943.8258,N,01323.6803,E,3.42,250.30,180612,,,A*6B
$GPVTG,250.30,T,,M,3.42,N,6.3,K,N*06
$GPGGA,181126.353,4943.8258,N,01323.6780,E,1,03,13.0,351.7,M,46.4,M,,0000*64
$GPGLL,4943.8258,N,01323.6780,E,181126.353,A,A*56
$GPGSA,A,2,29,25,05,,,,,,,,,,13.4,13.0,3.2*3F
$GPGSV,3,1,11,29,53,070,29,31,37,225,,25,30,134,24,05,20,052,15*79
$GPGSV,3,2,11,21,58,178,,30,54,297,,16,26,305,,06,12,266,*74
$GPGSV,3,3,11,13,04,341,,18,02,156,,23,02,312,*43
$GPRMC,181126.353,A,4943.8258,N,01323.6780,E,4.27,254.08,180612,,,A*67
$GPVTG,254.08,T,,M,4.27,N,7.9,K,N*06
$GPGGA,181127.353,4943.8259,N,01323.6753,E,1,03,13.0,351.3,M,46.4,M,,0000*6E
$GPGLL,4943.8259,N,01323.6753,E,181127.353,A,A*58
$GPGSA,A,2,29,25,05,,,,,,,,,,13.4,13.0,3.2*3F
$GPGSV,3,1,11,29,53,070,29,31,37,225,,25,30,134,24,05,20,052,15*79
$GPGSV,3,2,11,21,58,178,,30,54,297,,16,26,305,,06,12,266,*74
$GPGSV,3,3,11,13,04,341,,18,02,156,,23,02,312,*43
$GPRMC,181127.353,A,4943.8259,N,01323.6753,E,5.18,256.18,180612,,,A*67
$GPVTG,256.18,T,,M,5.18,N,9.6,K,N*09
$GPGGA,181128.353,4943.8259,N,01323.6720,E,1,03,13.0,352.1,M,46.4,M,,0000*64
$GPGLL,4943.8259,N,01323.6720,E,181128.353,A,A*53
$GPGSA,A,2,29,25,05,,,,,,,,,,13.4,13.0,3.2*3F
$GPGSV,3,1,11,29,53,070,29,31,37,225,,25,30,134,24,05,20,052,14*78
$GPGSV,3,2,11,21,58,178,,30,54,297,,16,26,305,,06,12,266,*74
$GPGSV,3,3,11,13,04,341,,18,02,156,,23,02,312,*43
$GPRMC,181128.353,A,4943.8259,N,01323.6720,E,6.19,257.65,180612,,,A*65
$GPVTG,257.65,T,,M,6.19,N,11.5,K,N*3A
$GPGGA,181129.353,4943.8256,N,01323.6682,E,1,03,13.0,353.8,M,46.4,M,,0000*6B
$GPGLL,4943.8256,N,01323.6682,E,181129.353,A,A*54
$GPGSA,A,2,29,25,05,,,,,,,,,,13.4,13.0,3.2*3F
$GPGSV,3,1,11,29,53,070,29,31,37,225,,25,30,134,24,05,20,052,14*78
$GPGSV,3,2,11,21,58,178,,30,54,297,,16,26,305,,06,12,266,*74
$GPGSV,3,3,11,13,04,341,,18,02,156,,23,02,312,*43
$GPRMC,181129.353,A,4943.8256,N,01323.6682,E,7.15,258.34,180612,,,A*64
$GPVTG,258.34,T,,M,7.15,N,13.2,K,N*39
$GPGGA,181130.353,4943.8255,N,01323.6648,E,1,03,13.0,353.9,M,46.4,M,,0000*67
$GPGLL,4943.8255,N,01323.6648,E,181130.353,A,A*59
$GPGSA,A,2,29,25,05,,,,,,,,,,13.4,13.0,3.2*3F
$GPGSV,3,1,11,29,53,070,29,31,37,225,,25,30,134,24,05,20,052,14*78
$GPGSV,3,2,11,21,58,178,,30,54,297,,16,26,305,,06,12,266,*74
$GPGSV,3,3,11,13,04,341,,18,02,156,,23,02,312,*43
$GPRMC,181130.353,A,4943.8255,N,01323.6648,E,7.49,261.70,180612,,,A*6A
$GPVTG,261.70,T,,M,7.49,N,13.9,K,N*31
$GPGGA,181131.353,4943.8251,N,01323.6623,E,1,03,13.0,354.0,M,46.4,M,,0000*61
$GPGLL,4943.8251,N,01323.6623,E,181131.353,A,A*51
$GPGSA,A,2,29,25,05,,,,,,,,,,13.4,13.0,3.2*3F
$GPGSV,3,1,11,29,53,070,29,31,37,225,,25,30,134,24,05,20,052,14*78
$GPGSV,3,2,11,21,58,178,,30,54,297,,16,26,305,,06,12,266,*74
$GPGSV,3,3,11,13,04,341,,18,02,156,,23,02,312,*43
$GPRMC,181131.353,A,4943.8251,N,01323.6623,E,6.98,263.78,180612,,,A*65
$GPVTG,263.78,T,,M,6.98,N,12.9,K,N*37
$GPGGA,181132.353,4943.8248,N,01323.6598,E,1,03,13.1,354.6,M,46.4,M,,0000*6E
$GPGLL,4943.8248,N,01323.6598,E,181132.353,A,A*59
$GPGSA,A,2,29,25,05,,,,,,,,,,13.4,13.1,3.2*3E
$GPGSV,3,1,11,29,53,070,29,31,37,225,,25,30,134,24,05,20,052,14*78
$GPGSV,3,2,11,21,58,178,,30,54,297,,16,26,305,,06,12,266,*74
$GPGSV,3,3,11,13,04,341,,18,02,156,,23,02,312,*43
$GPRMC,181132.353,A,4943.8248,N,01323.6598,E,6.54,266.76,180612,,,A*66
$GPVTG,266.76,T,,M,6.54,N,12.1,K,N*34
$GPGGA,181133.353,4943.8242,N,01323.6598,E,1,03,13.1,354.9,M,46.4,M,,0000*6A
$GPGLL,4943.8242,N,01323.6598,E,181133.353,A,A*52
$GPGSA,A,2,29,25,05,,,,,,,,,,13.5,13.1,3.2*3F
$GPGSV,3,1,11,29,53,070,29,31,37,225,,25,30,134,24,05,20,052,14*78
$GPGSV,3,2,11,21,58,178,,30,54,297,,16,26,305,,06,12,266,*74
$GPGSV,3,3,11,13,04,341,,18,02,156,,23,02,312,*43
$GPRMC,181133.353,A,4943.8242,N,01323.6598,E,5.17,259.66,180612,,,A*64
$GPVTG,259.66,T,,M,5.17,N,9.6,K,N*00
$GPGGA,181134.353,4943.8242,N,01323.6572,E,1,03,13.1,354.6,M,46.4,M,,0000*66
$GPGLL,4943.8242,N,01323.6572,E,181134.353,A,A*51
$GPGSA,A,2,29,25,05,,,,,,,,,,13.5,13.1,3.2*3F
$GPGSV,3,1,11,29,53,070,29,31,37,225,,25,30,134,24,05,20,052,14*78
$GPGSV,3,2,11,21,58,178,,30,54,297,,16,26,305,,06,12,266,*74
$GPGSV,3,3,11,13,04,341,,18,02,156,,23,02,312,*43
$GPRMC,181134.353,A,4943.8242,N,01323.6572,E,4.75,264.99,180612,,,A*6C
$GPVTG,264.99,T,,M,4.75,N,8.8,K,N*04
$GPGGA,181135.353,4943.8243,N,01323.6555,E,1,03,13.1,354.3,M,46.4,M,,0000*66
$GPGLL,4943.8243,N,01323.6555,E,181135.353,A,A*54
$GPGSA,A,2,29,25,05,,,,,,,,,,13.5,13.1,3.2*3F
$GPGSV,3,1,11,29,53,070,29,31,37,225,,25,30,134,24,05,20,052,14*78
$GPGSV,3,2,11,21,58,178,,30,54,297,,16,26,305,,06,12,266,*74
$GPGSV,3,3,11,13,04,341,,18,02,156,,23,02,312,*43
$GPRMC,181135.353,A,4943.8243,N,01323.6555,E,4.62,269.00,180612,,,A*62
$GPVTG,269.00,T,,M,4.62,N,8.5,K,N*02
$GPGGA,181136.353,4943.8245,N,01323.6538,E,1,03,13.1,353.7,M,46.4,M,,0000*6B
$GPGLL,4943.8245,N,01323.6538,E,181136.353,A,A*5A
$GPGSA,A,2,29,25,05,,,,,,,,,,13.5,13.1,3.2*3F
$GPGSV,3,1,11,29,53,070,29,31,37,225,,25,30,134,24,05,20,052,14*78
$GPGSV,3,2,11,21,58,178,,30,54,297,,16,26,305,,06,12,266,*74
$GPGSV,3,3,11,13,04,341,,18,02,156,,23,02,312,*43
$GPRMC,181136.353,A,4943.8245,N,01323.6538,E,4.36,264.51,180612,,,A*64
$GPVTG,264.51,T,,M,4.36,N,8.1,K,N*0E
$GPGGA,181137.353,4943.8244,N,01323.6524,E,1,03,13.1,353.4,M,46.4,M,,0000*65
$GPGLL,4943.8244,N,01323.6524,E,181137.353,A,A*57
$GPGSA,A,2,29,25,05,,,,,,,,,,13.5,13.1,3.2*3F
$GPGSV,3,1,11,29,53,070,29,31,37,225,,25,30,134,24,05,20,052,13*7F
$GPGSV,3,2,11,21,58,178,,30,54,297,,16,26,305,,06,12,266,*74
$GPGSV,3,3,11,13,04,341,,18,02,156,,23,02,312,*43
$GPRMC,181137.353,A,4943.8244,N,01323.6524,E,3.96,255.70,180612,,,A*65
$GPVTG,255.70,T,,M,3.96,N,7.3,K,N*0F
$GPGGA,181138.353,4943.8246,N,01323.6512,E,1,03,13.1,352.9,M,46.4,M,,0000*61
$GPGLL,4943.8246,N,01323.6512,E,181138.353,A,A*5F
$GPGSA,A,2,29,25,05,,,,,,,,,,13.5,13.1,3.2*3F
$GPGSV,3,1,11,29,53,070,29,31,37,225,,25,30,134,24,05,20,052,13*7F
$GPGSV,3,2,11,21,58,178,,30,54,297,,16,26,305,,06,12,266,*74
$GPGSV,3,3,11,13,04,341,,18,02,156,,23,02,312,*43
$GPRMC,181138.353,A,4943.8246,N,01323.6512,E,3.46,259.28,180612,,,A*61
$GPVTG,259.28,T,,M,3.46,N,6.4,K,N*05
$GPGGA,181139.353,4943.8251,N,01323.6498,E,1,03,13.2,352.7,M,46.4,M,,0000*68
$GPGLL,4943.8251,N,01323.6498,E,181139.353,A,A*5B
$GPGSA,A,2,29,25,05,,,,,,,,,,13.5,13.2,3.2*3C
$GPGSV,3,1,11,29,53,070,29,31,37,225,,25,30,134,24,05,20,052,13*7F
$GPGSV,3,2,11,21,58,178,,30,54,297,,16,26,305,,06,12,266,*74
$GPGSV,3,3,11,13,04,341,,18,02,156,,23,02,312,*43
$GPRMC,181139.353,A,4943.8251,N,01323.6498,E,3.77,279.93,180612,,,A*65
$GPVTG,279.93,T,,M,3.77,N,7.0,K,N*00
$GPGGA,181140.353,4943.8254,N,01323.6494,E,1,03,13.2,351.6,M,46.4,M,,0000*6D
$GPGLL,4943.8254,N,01323.6494,E,181140.353,A,A*5C
$GPGSA,A,2,29,25,05,,,,,,,,,,13.5,13.2,3.2*3C
$GPGSV,3,1,11,29,53,070,29,31,37,225,,25,30,134,24,05,20,052,13*7F
$GPGSV,3,2,11,21,58,178,,30,54,297,,16,26,305,,06,12,266,*74
$GPGSV,3,3,11,13,04,341,,18,02,156,,23,02,312,*43
$GPRMC,181140.353,A,4943.8254,N,01323.6494,E,2.86,272.09,180612,,,A*65
$GPVTG,272.09,T,,M,2.86,N,5.3,K,N*06
$GPGGA,181141.353,4943.8259,N,01323.6480,E,1,03,13.2,351.5,M,46.4,M,,0000*67
$GPGLL,4943.8259,N,01323.6480,E,181141.353,A,A*55
$GPGSA,A,2,29,25,05,,,,,,,,,,13.6,13.2,3.2*3F
$GPGSV,3,1,11,29,53,070,29,31,37,225,,25,30,134,24,05,20,052,13*7F
$GPGSV,3,2,11,21,58,178,,30,54,297,,16,26,305,,06,12,266,*74
$GPGSV,3,3,11,13,04,341,,18,02,156,,23,02,312,*43
$GPRMC,181141.353,A,4943.8259,N,01323.6480,E,2.93,278.90,180612,,,A*62
$GPVTG,278.90,T,,M,2.93,N,5.4,K,N*0F
$GPGGA,181142.353,4943.8263,N,01323.6468,E,1,03,13.2,351.0,M,46.4,M,,0000*6E
$GPGLL,4943.8263,N,01323.6468,E,181142.353,A,A*59
$GPGSA,A,2,29,25,05,,,,,,,,,,13.6,13.2,3.2*3F
$GPGSV,3,1,11,29,53,070,29,31,37,225,,25,30,134,24,05,20,052,13*7F
$GPGSV,3,2,11,21,58,178,,30,54,297,,16,26,305,,06,12,266,*74
$GPGSV,3,3,11,13,04,341,,18,02,156,,23,02,312,*43
$GPRMC,181142.353,A,4943.8263,N,01323.6468,E,2.72,271.00,180612,,,A*61
$GPVTG,271.00,T,,M,2.72,N,5.0,K,N*04
$GPGGA,181143.353,4943.8263,N,01323.6459,E,1,03,13.2,350.4,M,46.4,M,,0000*68
$GPGLL,4943.8263,N,01323.6459,E,181143.353,A,A*5A
$GPGSA,A,2,29,25,05,,,,,,,,,,13.6,13.2,3.2*3F
$GPGSV,3,1,11,29,53,070,29,31,37,225,,25,30,134,24,05,20,052,13*7F
$GPGSV,3,2,11,21,58,178,,30,54,297,,16,26,305,,06,12,266,*74
$GPGSV,3,3,11,13,04,341,,18,02,156,,23,02,312,*43
$GPRMC,181143.353,A,4943.8263,N,01323.6459,E,2.93,260.09,180612,,,A*64
$GPVTG,260.09,T,,M,2.93,N,5.4,K,N*06
$GPGGA,181144.353,4943.8267,N,01323.6443,E,1,03,13.2,349.6,M,46.4,M,,0000*6A
$GPGLL,4943.8267,N,01323.6443,E,181144.353,A,A*52
$GPGSA,A,2,29,25,05,,,,,,,,,,13.6,13.2,3.2*3F
$GPGSV,3,1,11,29,53,070,29,31,37,225,,25,30,134,24,05,20,052,13*7F
$GPGSV,3,2,11,21,58,178,,30,54,297,,16,26,305,,06,12,266,*74
$GPGSV,3,3,11,13,04,341,,18,02,156,,23,02,312,*43
$GPRMC,181144.353,A,4943.8267,N,01323.6443,E,3.13,270.62,180612,,,A*69
$GPVTG,270.62,T,,M,3.13,N,5.8,K,N*0F
$GPGGA,181145.353,4943.8270,N,01323.6439,E,1,03,13.2,349.0,M,46.4,M,,0000*66
$GPGLL,4943.8270,N,01323.6439,E,181145.353,A,A*58
$GPGSA,A,2,29,25,05,,,,,,,,,,13.6,13.2,3.2*3F
$GPGSV,3,1,11,29,53,070,29,31,37,225,,25,30,134,24,05,20,052,13*7F
$GPGSV,3,2,11,21,58,178,,30,54,297,,16,26,305,,06,12,266,*74
$GPGSV,3,3,11,13,04,341,,18,02,156,,23,02,312,*43
$GPRMC,181145.353,A,4943.8270,N,01323.6439,E,2.50,262.53,180612,,,A*64
$GPVTG,262.53,T,,M,2.50,N,4.6,K,N*07
$GPGGA,181146.353,4943.8271,N,01323.6432,E,1,03,13.3,348.9,M,46.4,M,,0000*66
$GPGLL,4943.8271,N,01323.6432,E,181146.353,A,A*51
$GPGSA,A,2,29,25,05,,,,,,,,,,13.6,13.3,3.2*3E
$GPGSV,3,1,11,29,53,070,29,31,37,225,,25,30,134,24,05,20,052,13*7F
$GPGSV,3,2,11,21,58,178,,30,54,297,,16,26,305,,06,12,266,*74
$GPGSV,3,3,11,13,04,341,,18,02,156,,23,02,312,*43
$GPRMC,181146.353,A,4943.8271,N,01323.6432,E,2.49,272.90,180612,,,A*6B
$GPVTG,272.90,T,,M,2.49,N,4.6,K,N*01
$GPGGA,181147.353,4943.8271,N,01323.6419,E,1,03,13.3,349.0,M,46.4,M,,0000*66
$GPGLL,4943.8271,N,01323.6419,E,181147.353,A,A*59
$GPGSA,A,2,29,25,05,,,,,,,,,,13.6,13.3,3.2*3E
$GPGSV,3,1,11,29,53,070,29,31,37,225,,25,30,134,24,05,20,052,13*7F
$GPGSV,3,2,11,21,58,178,,30,54,297,,16,26,305,,06,12,266,*74
$GPGSV,3,3,11,13,04,341,,18,02,156,,23,02,312,*43
$GPRMC,181147.353,A,4943.8271,N,01323.6419,E,2.38,255.78,180612,,,A*66
$GPVTG,255.78,T,,M,2.38,N,4.4,K,N*06
$GPGGA,181148.353,4943.8267,N,01323.6428,E,1,03,13.3,349.5,M,46.4,M,,0000*69
$GPGLL,4943.8267,N,01323.6428,E,181148.353,A,A*53
$GPGSA,A,2,29,25,05,,,,,,,,,,13.7,13.3,3.2*3F
$GPGSV,3,1,11,29,53,070,30,31,37,225,,25,30,134,24,05,20,052,13*77
$GPGSV,3,2,11,21,58,178,,30,54,297,,16,26,305,,06,12,266,*74
$GPGSV,3,3,11,13,04,341,,18,02,156,,23,02,312,*43
$GPRMC,181148.353,A,4943.8267,N,01323.6428,E,2.14,265.00,180612,,,A*6E
$GPVTG,265.00,T,,M,2.14,N,4.0,K,N*00
$GPGGA,181149.353,4943.8267,N,01323.6415,E,1,03,13.3,349.6,M,46.4,M,,0000*65
$GPGLL,4943.8267,N,01323.6415,E,181149.353,A,A*5C
$GPGSA,A,2,29,25,05,,,,,,,,,,13.7,13.3,3.2*3F
$GPGSV,3,1,11,29,53,070,30,31,37,225,,25,30,134,24,05,20,052,13*77
$GPGSV,3,2,11,21,58,178,,30,54,297,,16,26,305,,06,12,266,*74
$GPGSV,3,3,11,13,04,341,,18,02,156,,23,02,312,*43
$GPRMC,181149.353,A,4943.8267,N,01323.6415,E,2.04,259.58,180612,,,A*62
$GPVTG,259.58,T,,M,2.04,N,3.8,K,N*0C
$GPGGA,181150.353,4943.8265,N,01323.6423,E,1,03,13.3,350.2,M,46.4,M,,0000*66
$GPGLL,4943.8265,N,01323.6423,E,181150.353,A,A*53
$GPGSA,A,2,29,25,05,,,,,,,,,,13.7,13.3,3.2*3F
$GPGSV,3,1,11,29,53,070,30,31,37,225,,25,30,134,24,05,20,052,13*77
$GPGSV,3,2,11,21,58,178,,30,54,297,,16,26,305,,06,12,266,*74
$GPGSV,3,3,11,13,04,341,,18,02,156,,23,02,312,*43
$GPRMC,181150.353,A,4943.8265,N,01323.6423,E,1.78,259.70,180612,,,A*6F
$GPVTG,259.70,T,,M,1.78,N,3.3,K,N*05
$GPGGA,181151.353,4943.8264,N,01323.6420,E,1,03,13.3,350.1,M,46.4,M,,0000*66
$GPGLL,4943.8264,N,01323.6420,E,181151.353,A,A*50
$GPGSA,A,2,29,25,05,,,,,,,,,,13.7,13.3,3.2*3F
$GPGSV,3,1,11,29,53,070,30,31,37,225,,25,30,134,24,05,20,052,13*77
$GPGSV,3,2,11,21,58,178,,30,54,297,,16,26,305,,06,12,266,*74
$GPGSV,3,3,11,13,04,341,,18,02,156,,23,02,312,*43
$GPRMC,181151.353,A,4943.8264,N,01323.6420,E,1.73,258.33,180612,,,A*61
$GPVTG,258.33,T,,M,1.73,N,3.2,K,N*09
$GPGGA,181152.353,4943.8263,N,01323.6411,E,1,03,13.3,350.3,M,46.4,M,,0000*62
$GPGLL,4943.8263,N,01323.6411,E,181152.353,A,A*56
$GPGSA,A,2,29,25,05,,,,,,,,,,13.7,13.3,3.2*3F
$GPGSV,3,1,11,21,58,178,,30,54,297,,29,52,071,30,31,36,225,*7E
$GPGSV,3,2,11,25,29,134,24,16,27,305,,05,19,051,13,06,13,266,*7D
$GPGSV,3,3,11,13,04,341,,18,03,155,,23,01,311,*41
$GPRMC,181152.353,A,4943.8263,N,01323.6411,E,1.78,259.38,180612,,,A*66
$GPVTG,259.38,T,,M,1.78,N,3.3,K,N*09
$GPGGA,181153.353,4943.8265,N,01323.6385,E,1,03,13.4,350.2,M,46.4,M,,0000*69
$GPGLL,4943.8265,N,01323.6385,E,181153.353,A,A*5B
$GPGSA,A,2,29,25,05,,,,,,,,,,13.7,13.4,3.2*38
$GPGSV,3,1,11,21,58,178,,30,54,297,,29,52,071,30,31,36,225,*7E
$GPGSV,3,2,11,25,29,134,24,16,27,305,,05,19,051,13,06,13,266,*7D
$GPGSV,3,3,11,13,04,341,,18,03,155,,23,01,311,*41
$GPRMC,181153.353,A,4943.8265,N,01323.6385,E,2.41,263.57,180612,,,A*62
$GPVTG,263.57,T,,M,2.41,N,4.5,K,N*01
$GPGGA,181154.353,4943.8265,N,01323.6362,E,1,03,13.4,350.7,M,46.4,M,,0000*62
$GPGLL,4943.8265,N,01323.6362,E,181154.353,A,A*55
$GPGSA,A,2,29,25,05,,,,,,,,,,13.7,13.4,3.2*38
$GPGSV,3,1,11,21,58,178,,30,54,297,,29,52,071,30,31,36,225,*7E
$GPGSV,3,2,11,25,29,134,24,16,27,305,,05,19,051,13,06,13,266,*7D
$GPGSV,3,3,11,13,04,341,,18,03,155,,23,01,311,*41
$GPRMC,181154.353,A,4943.8265,N,01323.6362,E,3.00,259.98,180612,,,A*62
$GPVTG,259.98,T,,M,3.00,N,5.6,K,N*0D
$GPGGA,181155.353,4943.8265,N,01323.6341,E,1,03,13.4,351.1,M,46.4,M,,0000*65
$GPGLL,4943.8265,N,01323.6341,E,181155.353,A,A*55
$GPGSA,A,2,29,25,05,,,,,,,,,,13.8,13.4,3.2*37
$GPGSV,3,1,11,21,58,178,,30,54,297,,29,52,071,30,31,36,225,*7E
$GPGSV,3,2,11,25,29,134,24,16,27,305,,05,19,051,13,06,13,266,*7D
$GPGSV,3,3,11,13,04,341,,18,03,155,,23,01,311,*41
$GPRMC,181155.353,A,4943.8265,N,01323.6341,E,3.54,259.38,180612,,,A*69
$GPVTG,259.38,T,,M,3.54,N,6.6,K,N*05
$GPGGA,181156.353,4943.8265,N,01323.6319,E,1,03,13.4,351.3,M,46.4,M,,0000*69
$GPGLL,4943.8265,N,01323.6319,E,181156.353,A,A*5B
$GPGSA,A,2,29,25,05,,,,,,,,,,13.8,13.4,3.2*37
$GPGSV,3,1,11,21,58,178,,30,54,297,,29,52,071,30,31,36,225,*7E
$GPGSV,3,2,11,25,29,134,25,16,27,305,,05,19,051,13,06,13,266,*7C
$GPGSV,3,3,11,13,04,341,,18,03,155,,23,01,311,*41
$GPRMC,181156.353,A,4943.8265,N,01323.6319,E,4.30,257.27,180612,,,A*62
$GPVTG,257.27,T,,M,4.30,N,8.0,K,N*08
$GPGGA,181157.353,4943.8264,N,01323.6297,E,1,03,13.4,351.6,M,46.4,M,,0000*6B
$GPGLL,4943.8264,N,01323.6297,E,181157.353,A,A*5C
$GPGSA,A,2,29,25,05,,,,,,,,,,13.8,13.4,3.2*37
$GPGSV,3,1,11,21,58,178,,30,54,297,,29,52,071,30,31,36,225,*7E
$GPGSV,3,2,11,25,29,134,25,16,27,305,,05,19,051,13,06,13,266,*7C
$GPGSV,3,3,11,13,04,341,,18,03,155,,23,01,311,*41
$GPRMC,181157.353,A,4943.8264,N,01323.6297,E,4.92,257.75,180612,,,A*6A
$GPVTG,257.75,T,,M,4.92,N,9.1,K,N*07
$GPGGA,181158.353,4943.8262,N,01323.6272,E,1,03,13.4,351.9,M,46.4,M,,0000*66
$GPGLL,4943.8262,N,01323.6272,E,181158.353,A,A*5E
$GPGSA,A,2,29,25,05,,,,,,,,,,13.8,13.4,3.2*37
$GPGSV,3,1,11,21,58,178,,30,54,297,,29,52,071,30,31,36,225,*7E
$GPGSV,3,2,11,25,29,134,25,16,27,305,,05,19,051,12,06,13,266,*7D
$GPGSV,3,3,11,13,04,341,,18,03,155,,23,01,311,*41
$GPRMC,181158.353,A,4943.8262,N,01323.6272,E,5.77,257.95,180612,,,A*6C
$GPVTG,257.95,T,,M,5.77,N,10.7,K,N*3D
$GPGGA,181159.353,4943.8259,N,01323.6248,E,6,00,50.0,352.4,M,46.4,M,,0000*6F
$GPGLL,4943.8259,N,01323.6248,E,181159.353,A,E*5A
$GPGSA,A,2,,,,,,,,,,,,,50.0,50.0,50.0*06
$GPGSV,3,1,11,21,58,178,,30,54,297,,29,52,071,30,31,36,225,*7E
$GPGSV,3,2,11,25,29,134,25,16,27,305,,05,19,051,,06,13,266,*7E
$GPGSV,3,3,11,13,04,341,,18,03,155,,23,01,311,*41
$GPRMC,181159.353,A,4943.8259,N,01323.6248,E,5.77,257.95,180612,,,E*68
$GPVTG,257.95,T,,M,5.77,N,10.7,K,N*3D
$GPGGA,181200.352,4943.8256,N,01323.6223,E,6,00,50.0,352.8,M,46.4,M,,0000*6F
$GPGLL,4943.8256,N,01323.6223,E,181200.352,A,E*56
$GPGSA,A,2,,,,,,,,,,,,,50.0,50.0,50.0*06
$GPGSV,3,1,11,21,58,178,,30,54,297,,29,52,071,30,31,36,225,*7E
$GPGSV,3,2,11,25,29,134,25,16,27,305,,05,19,051,,06,13,266,*7E
$GPGSV,3,3,11,13,04,341,,18,03,155,,23,01,311,*41
$GPRMC,181200.352,A,4943.8256,N,01323.6223,E,5.77,257.95,180612,,,E*64
$GPVTG,257.95,T,,M,5.77,N,10.7,K,N*3D
$GPGGA,181201.353,4943.8252,N,01323.6199,E,6,00,50.0,353.2,M,46.4,M,,0000*62
$GPGLL,4943.8252,N,01323.6199,E,181201.353,A,E*50
$GPGSA,A,2,,,,,,,,,,,,,50.0,50.0,50.0*06
$GPGSV,3,1,11,21,58,178,,30,54,297,,29,52,071,30,31,36,225,*7E
$GPGSV,3,2,11,25,29,134,25,16,27,305,,05,19,051,,06,13,266,*7E
$GPGSV,3,3,11,13,04,341,,18,03,155,,23,01,311,*41
$GPRMC,181201.353,A,4943.8252,N,01323.6199,E,5.77,257.95,180612,,,E*62
$GPVTG,257.95,T,,M,5.77,N,10.7,K,N*3D
$GPGGA,181202.353,4943.8249,N,01323.6175,E,6,00,50.0,353.6,M,46.4,M,,0000*6D
$GPGLL,4943.8249,N,01323.6175,E,181202.353,A,E*5B
$GPGSA,A,2,,,,,,,,,,,,,50.0,50.0,50.0*06
$GPGSV,3,1,11,21,58,178,,30,54,297,,29,52,071,30,31,36,225,*7E
$GPGSV,3,2,11,25,29,134,25,16,27,305,,05,19,051,,06,13,266,*7E
$GPGSV,3,3,11,13,04,341,,18,03,155,,23,01,311,*41
$GPRMC,181202.353,A,4943.8249,N,01323.6175,E,5.77,257.95,180612,,,E*69
$GPVTG,257.95,T,,M,5.77,N,10.7,K,N*3D
$GPGGA,181203.353,4943.8246,N,01323.6151,E,6,00,50.0,354.0,M,46.4,M,,0000*64
$GPGLL,4943.8246,N,01323.6151,E,181203.353,A,E*53
$GPGSA,A,2,,,,,,,,,,,,,50.0,50.0,50.0*06
$GPGSV,3,1,11,21,58,178,,30,54,297,,29,52,071,30,31,36,225,*7E
$GPGSV,3,2,11,25,29,134,25,16,27,305,,05,19,051,,06,13,266,*7E
$GPGSV,3,3,11,13,04,341,,18,03,155,,23,01,311,*41
$GPRMC,181203.353,A,4943.8246,N,01323.6151,E,5.77,257.95,180612,,,E*61
$GPVTG,257.95,T,,M,5.77,N,10.7,K,N*3D
$GPGGA,181204.353,4943.8242,N,01323.6127,E,6,00,50.0,354.4,M,46.4,M,,0000*62
$GPGLL,4943.8242,N,01323.6127,E,181204.353,A,E*51
$GPGSA,A,2,,,,,,,,,,,,,50.0,50.0,50.0*06
$GPGSV,3,1,11,21,58,178,,30,54,297,,29,52,071,30,31,36,225,*7E
$GPGSV,3,2,11,25,29,134,25,16,27,305,,05,19,051,,06,13,266,*7E
$GPGSV,3,3,11,13,04,341,,18,03,155,,23,01,311,*41
$GPRMC,181204.353,A,4943.8242,N,01323.6127,E,5.77,257.95,180612,,,E*63
$GPVTG,257.95,T,,M,5.77,N,10.7,K,N*3D
$GPGGA,181205.353,4943.8239,N,01323.6103,E,6,00,50.0,354.9,M,46.4,M,,0000*64
$GPGLL,4943.8239,N,01323.6103,E,181205.353,A,E*5A
$GPGSA,A,2,,,,,,,,,,,,,50.0,50.0,50.0*06
$GPGSV,3,1,11,21,58,178,,30,54,297,,29,52,071,29,31,36,225,*76
$GPGSV,3,2,11,25,29,134,25,16,27,305,,05,19,051,,06,13,266,*7E
$GPGSV,3,3,11,13,04,341,,18,03,155,,23,01,311,*41
$GPRMC,181205.353,A,4943.8239,N,01323.6103,E,5.77,257.95,180612,,,E*68
$GPVTG,257.95,T,,M,5.77,N,10.7,K,N*3D
$GPGGA,181206.353,4943.8236,N,01323.6078,E,6,00,50.0,355.3,M,46.4,M,,0000*6E
$GPGLL,4943.8236,N,01323.6078,E,181206.353,A,E*5B
$GPGSA,A,2,,,,,,,,,,,,,50.0,50.0,50.0*06
$GPGSV,3,1,11,21,58,178,,30,54,297,,29,52,071,29,31,36,225,*76
$GPGSV,3,2,11,25,29,134,25,16,27,305,,05,19,051,,06,13,266,*7E
$GPGSV,3,3,11,13,04,341,,18,03,155,,23,01,311,*41
$GPRMC,181206.353,A,4943.8236,N,01323.6078,E,5.77,257.95,180612,,,E*69
$GPVTG,257.95,T,,M,5.77,N,10.7,K,N*3D
$GPGGA,181207.353,4943.8232,N,01323.6054,E,6,00,50.0,355.7,M,46.4,M,,0000*61
$GPGLL,4943.8232,N,01323.6054,E,181207.353,A,E*50
$GPGSA,A,2,,,,,,,,,,,,,50.0,50.0,50.0*06
$GPGSV,3,1,11,21,58,178,,30,54,297,,29,52,071,29,31,36,225,*76
$GPGSV,3,2,11,25,29,134,25,16,27,305,,05,19,051,,06,13,266,*7E
$GPGSV,3,3,11,13,04,341,,18,03,155,,23,01,311,*41
$GPRMC,181207.353,A,4943.8232,N,01323.6054,E,5.77,257.95,180612,,,E*62
$GPVTG,257.95,T,,M,5.77,N,10.7,K,N*3D
$GPGGA,181208.353,4943.8229,N,01323.6030,E,6,00,50.0,356.1,M,46.4,M,,0000*63
$GPGLL,4943.8229,N,01323.6030,E,181208.353,A,E*57
$GPGSA,A,2,,,,,,,,,,,,,50.0,50.0,50.0*06
$GPGSV,3,1,11,21,58,178,,30,54,297,,29,52,071,29,31,36,225,*76
$GPGSV,3,2,11,25,29,134,25,16,27,305,,05,19,051,,06,13,266,*7E
$GPGSV,3,3,11,13,04,341,,18,03,155,,23,01,311,*41
$GPRMC,181208.353,A,4943.8229,N,01323.6030,E,5.77,257.95,180612,,,E*65
$GPVTG,257.95,T,,M,5.77,N,10.7,K,N*3D
$GPGGA,181209.353,4943.8226,N,01323.6006,E,6,00,50.0,356.5,M,46.4,M,,0000*6C
$GPGLL,4943.8226,N,01323.6006,E,181209.353,A,E*5C
$GPGSA,A,2,,,,,,,,,,,,,50.0,50.0,50.0*06
$GPGSV,3,1,11,21,58,178,,30,54,297,,29,52,071,29,31,36,225,*76
$GPGSV,3,2,11,25,29,134,25,16,27,305,,05,19,051,,06,13,266,*7E
$GPGSV,3,3,11,13,04,341,,18,03,155,,23,01,311,*41
$GPRMC,181209.353,A,4943.8226,N,01323.6006,E,5.77,257.95,180612,,,E*6E
$GPVTG,257.95,T,,M,5.77,N,10.7,K,N*3D
$GPGGA,181210.353,4943.8222,N,01323.5982,E,6,00,50.0,357.0,M,46.4,M,,0000*62
$GPGLL,4943.8222,N,01323.5982,E,181210.353,A,E*56
$GPGSA,A,2,,,,,,,,,,,,,50.0,50.0,50.0*06
$GPGSV,3,1,11,21,58,178,,30,54,297,,29,52,071,29,31,36,225,*76
$GPGSV,3,2,11,25,29,134,25,16,27,305,,05,19,051,,06,13,266,*7E
$GPGSV,3,3,11,13,04,341,,18,03,155,,23,01,311,*41
$GPRMC,181210.353,A,4943.8222,N,01323.5982,E,5.77,257.95,180612,,,E*64
$GPVTG,257.95,T,,M,5.77,N,10.7,K,N*3D
$GPGGA,181211.353,4943.8219,N,01323.5958,E,6,00,50.0,357.4,M,46.4,M,,0000*68
$GPGLL,4943.8219,N,01323.5958,E,181211.353,A,E*58
$GPGSA,A,2,,,,,,,,,,,,,50.0,50.0,50.0*06
$GPGSV,3,1,11,21,58,178,,30,54,297,,29,52,071,30,31,36,225,*7E
$GPGSV,3,2,11,25,29,134,25,16,27,305,,05,19,051,,06,13,266,*7E
$GPGSV,3,3,11,13,04,341,,18,03,155,,23,01,311,*41
$GPRMC,181211.353,A,4943.8219,N,01323.5958,E,5.77,257.95,180612,,,E*6A
$GPVTG,257.95,T,,M,5.77,N,10.7,K,N*3D
$GPGGA,181212.353,4943.8216,N,01323.5933,E,6,00,50.0,357.8,M,46.4,M,,0000*65
$GPGLL,4943.8216,N,01323.5933,E,181212.353,A,E*59
$GPGSA,A,2,,,,,,,,,,,,,50.0,50.0,50.0*06
$GPGSV,3,1,11,21,58,178,,30,54,297,,29,52,071,30,31,36,225,*7E
$GPGSV,3,2,11,25,29,134,25,16,27,305,,05,19,051,,06,13,266,*7E
$GPGSV,3,3,11,13,04,341,,18,03,155,,23,01,311,*41
$GPRMC,181212.353,A,4943.8216,N,01323.5933,E,5.77,257.95,180612,,,E*6B
$GPVTG,257.95,T,,M,5.77,N,10.7,K,N*3D
$GPGGA,181213.353,4943.8212,N,01323.5909,E,0,00,,358.2,M,46.4,M,,0000*71
$GPGLL,4943.8212,N,01323.5909,E,181213.353,V,N*49
$GPGSA,A,1,,,,,,,,,,,,,,,*1E
$GPGSV,3,1,11,21,58,178,,30,54,297,,29,52,071,30,31,36,225,*7E
$GPGSV,3,2,11,25,29,134,25,16,27,305,,05,19,051,,06,13,266,*7E
$GPGSV,3,3,11,13,04,341,,18,03,155,,23,01,311,*41
$GPRMC,181213.353,V,4943.8212,N,01323.5909,E,,,180612,,,N*72
$GPVTG,,T,,M,,N,,K,N*2C
$GPGGA,181214.353,4943.8212,N,01323.5909,E,0,00,,358.2,M,46.4,M,,0000*76
$GPGLL,4943.8212,N,01323.5909,E,181214.353,V,N*4E
$GPGSA,A,1,,,,,,,,,,,,,,,*1E
$GPGSV,3,1,11,21,58,178,,30,54,297,,29,52,071,30,31,36,225,*7E
$GPGSV,3,2,11,25,29,134,25,16,27,305,,05,19,051,,06,13,266,*7E
$GPGSV,3,3,11,13,04,341,,18,03,155,,23,01,311,*41
$GPRMC,181214.353,V,4943.8212,N,01323.5909,E,,,180612,,,N*75
$GPVTG,,T,,M,,N,,K,N*2C
$GPGGA,181215.353,4943.8212,N,01323.5909,E,0,00,,358.2,M,46.4,M,,0000*77
$GPGLL,4943.8212,N,01323.5909,E,181215.353,V,N*4F
$GPGSA,A,1,,,,,,,,,,,,,,,*1E
$GPGSV,3,1,11,21,58,178,,30,54,297,,29,52,071,30,31,36,225,*7E
$GPGSV,3,2,11,25,29,134,25,16,27,305,,05,19,051,,06,13,266,*7E
$GPGSV,3,3,11,13,04,341,,18,03,155,,23,01,311,*41
$GPRMC,181215.353,V,4943.8212,N,01323.5909,E,,,180612,,,N*74
$GPVTG,,T,,M,,N,,K,N*2C
$GPGGA,181216.353,4943.8212,N,01323.5909,E,0,00,,358.2,M,46.4,M,,0000*74
$GPGLL,4943.8212,N,01323.5909,E,181216.353,V,N*4C
$GPGSA,A,1,,,,,,,,,,,,,,,*1E
$GPGSV,3,1,11,21,58,178,,30,54,297,,29,52,071,29,31,36,225,*76
$GPGSV,3,2,11,25,29,134,26,16,27,305,,05,19,051,,06,13,267,*7C
$GPGSV,3,3,11,13,04,341,,18,03,155,,23,01,311,*41
$GPRMC,181216.353,V,4943.8212,N,01323.5909,E,,,180612,,,N*77
$GPVTG,,T,,M,,N,,K,N*2C
$GPGGA,181217.353,4943.8212,N,01323.5909,E,0,00,,358.2,M,46.4,M,,0000*75
$GPGLL,4943.8212,N,01323.5909,E,181217.353,V,N*4D
$GPGSA,A,1,,,,,,,,,,,,,,,*1E
$GPGSV,3,1,11,21,58,178,,30,54,297,,29,52,071,30,31,36,225,*7E
$GPGSV,3,2,11,25,29,134,26,16,27,305,,05,19,051,,06,13,267,*7C
$GPGSV,3,3,11,13,04,341,,18,03,155,,23,01,311,*41
$GPRMC,181217.353,V,4943.8212,N,01323.5909,E,,,180612,,,N*76
$GPVTG,,T,,M,,N,,K,N*2C
$GPGGA,181218.353,4943.8212,N,01323.5909,E,0,00,,358.2,M,46.4,M,,0000*7A
$GPGLL,4943.8212,N,01323.5909,E,181218.353,V,N*42
$GPGSA,A,1,,,,,,,,,,,,,,,*1E
$GPGSV,3,1,11,21,58,178,,30,54,297,,29,52,071,30,31,36,225,*7E
$GPGSV,3,2,11,25,29,134,26,16,27,305,,05,19,051,,06,13,267,*7C
$GPGSV,3,3,11,13,04,341,,18,03,155,,23,01,311,*41
$GPRMC,181218.353,V,4943.8212,N,01323.5909,E,,,180612,,,N*79
$GPVTG,,T,,M,,N,,K,N*2C
$GPGGA,181219.353,4943.8212,N,01323.5909,E,0,00,,358.2,M,46.4,M,,0000*7B
$GPGLL,4943.8212,N,01323.5909,E,181219.353,V,N*43
$GPGSA,A,1,,,,,,,,,,,,,,,*1E
$GPGSV,3,1,11,21,58,178,,30,54,297,,29,52,071,29,31,36,225,*76
$GPGSV,3,2,11,25,29,134,26,16,27,305,,05,19,051,,06,13,267,*7C
$GPGSV,3,3,11,13,04,341,,18,03,155,,23,01,311,*41
$GPRMC,181219.353,V,4943.8212,N,01323.5909,E,,,180612,,,N*78
$GPVTG,,T,,M,,N,,K,N*2C
$GPGGA,181220.353,4943.8212,N,01323.5909,E,0,00,,358.2,M,46.4,M,,0000*71
$GPGLL,4943.8212,N,01323.5909,E,181220.353,V,N*49
$GPGSA,A,1,,,,,,,,,,,,,,,*1E
$GPGSV,3,1,11,21,58,178,,30,54,297,,29,52,071,29,31,36,225,*76
$GPGSV,3,2,11,25,29,134,26,16,27,305,,05,19,051,,06,13,267,*7C
$GPGSV,3,3,11,13,04,341,,18,03,155,,23,01,311,*41
$GPRMC,181220.353,V,4943.8212,N,01323.5909,E,,,180612,,,N*72
$GPVTG,,T,,M,,N,,K,N*2C
$GPGGA,181221.353,4943.8212,N,01323.5909,E,0,00,,358.2,M,46.4,M,,0000*70
$GPGLL,4943.8212,N,01323.5909,E,181221.353,V,N*48
$GPGSA,A,1,,,,,,,,,,,,,,,*1E
$GPGSV,3,1,11,21,58,178,,30,54,297,,29,52,071,29,31,36,225,*76
$GPGSV,3,2,11,25,29,134,26,16,27,305,,05,19,051,,06,13,267,*7C
$GPGSV,3,3,11,13,04,341,,18,03,155,,23,01,311,*41
$GPRMC,181221.353,V,4943.8212,N,01323.5909,E,,,180612,,,N*73
$GPVTG,,T,,M,,N,,K,N*2C
$GPGGA,181222.353,4943.8212,N,01323.5909,E,0,00,,358.2,M,46.4,M,,0000*73
$GPGLL,4943.8212,N,01323.5909,E,181222.353,V,N*4B
$GPGSA,A,1,,,,,,,,,,,,,,,*1E
$GPGSV,3,1,11,21,58,178,,30,54,297,,29,52,071,29,31,36,225,*76
$GPGSV,3,2,11,25,29,134,26,16,27,305,,05,19,051,,06,13,267,*7C
$GPGSV,3,3,11,13,04,341,,18,03,155,,23,01,311,*41
$GPRMC,181222.353,V,4943.8212,N,01323.5909,E,,,180612,,,N*70
$GPVTG,,T,,M,,N,,K,N*2C
$GPGGA,181223.353,4943.8212,N,01323.5909,E,0,00,,358.2,M,46.4,M,,0000*72
$GPGLL,4943.8212,N,01323.5909,E,181223.353,V,N*4A
$GPGSA,A,1,,,,,,,,,,,,,,,*1E
$GPGSV,3,1,11,21,58,178,,30,54,297,,29,52,071,29,31,36,225,*76
$GPGSV,3,2,11,25,29,134,26,16,27,305,,05,19,051,,06,13,267,*7C
$GPGSV,3,3,11,13,04,341,,18,03,155,,23,01,311,*41
$GPRMC,181223.353,V,4943.8212,N,01323.5909,E,,,180612,,,N*71
$GPVTG,,T,,M,,N,,K,N*2C
$GPGGA,181224.353,4943.8212,N,01323.5909,E,0,00,,358.2,M,46.4,M,,0000*75
$GPGLL,4943.8212,N,01323.5909,E,181224.353,V,N*4D
$GPGSA,A,1,,,,,,,,,,,,,,,*1E
$GPGSV,3,1,11,21,58,178,,30,54,297,,29,52,071,29,31,36,225,*76
$GPGSV,3,2,11,25,29,134,26,16,27,305,,05,19,051,,06,13,267,*7C
$GPGSV,3,3,11,13,04,341,,18,03,155,,23,01,311,*41
$GPRMC,181224.353,V,4943.8212,N,01323.5909,E,,,180612,,,N*76
$GPVTG,,T,,M,,N,,K,N*2C
$GPGGA,181225.353,4943.8212,N,01323.5909,E,0,00,,358.2,M,46.4,M,,0000*74
$GPGLL,4943.8212,N,01323.5909,E,181225.353,V,N*4C
$GPGSA,A,1,,,,,,,,,,,,,,,*1E
$GPGSV,3,1,11,21,58,178,,30,54,297,,29,52,071,29,31,36,225,*76
$GPGSV,3,2,11,25,29,134,26,16,27,305,,05,19,051,,06,13,267,*7C
$GPGSV,3,3,11,13,04,341,,18,03,155,,23,01,311,*41
$GPRMC,181225.353,V,4943.8212,N,01323.5909,E,,,180612,,,N*77
$GPVTG,,T,,M,,N,,K,N*2C
$GPGGA,181226.353,4943.8212,N,01323.5909,E,0,00,,358.2,M,46.4,M,,0000*77
$GPGLL,4943.8212,N,01323.5909,E,181226.353,V,N*4F
$GPGSA,A,1,,,,,,,,,,,,,,,*1E
$GPGSV,3,1,11,21,58,178,,30,54,297,,29,52,071,29,31,36,225,*76
$GPGSV,3,2,11,25,29,134,26,16,27,305,,05,19,051,,06,13,267,*7C
$GPGSV,3,3,11,13,04,341,,18,03,155,,23,01,311,*41
$GPRMC,181226.353,V,4943.8212,N,01323.5909,E,,,180612,,,N*74
$GPVTG,,T,,M,,N,,K,N*2C
$GPGGA,181227.353,4943.8212,N,01323.5909,E,0,00,,358.2,M,46.4,M,,0000*76
$GPGLL,4943.8212,N,01323.5909,E,181227.353,V,N*4E
$GPGSA,A,1,,,,,,,,,,,,,,,*1E
$GPGSV,3,1,11,21,58,178,,30,54,297,,29,52,071,29,31,36,225,*76
$GPGSV,3,2,11,25,29,134,26,16,27,305,,05,19,051,,06,13,267,*7C
$GPGSV,3,3,11,13,04,341,,18,03,155,,23,01,311,*41
$GPRMC,181227.353,V,4943.8212,N,01323.5909,E,,,180612,,,N*75
$GPVTG,,T,,M,,N,,K,N*2C
$GPGGA,181228.353,4943.8212,N,01323.5909,E,0,00,,358.2,M,46.4,M,,0000*79
$GPGLL,4943.8212,N,01323.5909,E,181228.353,V,N*41
$GPGSA,A,1,,,,,,,,,,,,,,,*1E
$GPGSV,3,1,11,21,58,178,,30,54,297,,29,52,071,29,31,36,225,*76
$GPGSV,3,2,11,25,29,134,26,16,27,305,,05,19,051,,06,13,267,*7C
$GPGSV,3,3,11,13,04,341,,18,03,155,,23,01,311,*41
$GPRMC,181228.353,V,4943.8212,N,01323.5909,E,,,180612,,,N*7A
$GPVTG,,T,,M,,N,,K,N*2C
$GPGGA,181229.353,4943.8212,N,01323.5909,E,0,00,,358.2,M,46.4,M,,0000*78
$GPGLL,4943.8212,N,01323.5909,E,181229.353,V,N*40
$GPGSA,A,1,,,,,,,,,,,,,,,*1E
$GPGSV,3,1,11,21,58,178,,30,54,297,,29,52,071,29,31,36,225,*76
$GPGSV,3,2,11,25,29,134,25,16,27,305,,05,19,051,,06,13,267,*7F
$GPGSV,3,3,11,13,04,341,,18,03,155,,23,01,311,*41
$GPRMC,181229.353,V,4943.8212,N,01323.5909,E,,,180612,,,N*7B
$GPVTG,,T,,M,,N,,K,N*2C
$GPGGA,181230.353,4943.8212,N,01323.5909,E,0,00,,358.2,M,46.4,M,,0000*70
$GPGLL,4943.8212,N,01323.5909,E,181230.353,V,N*48
$GPGSA,A,1,,,,,,,,,,,,,,,*1E
$GPGSV,3,1,11,21,58,178,,30,54,297,,29,52,071,29,31,36,225,*76
$GPGSV,3,2,11,25,29,134,20,16,27,305,,05,19,051,,06,13,267,*7A
$GPGSV,3,3,11,13,04,341,,18,03,155,,23,01,311,*41
$GPRMC,181230.353,V,4943.8212,N,01323.5909,E,,,180612,,,N*73
$GPVTG,,T,,M,,N,,K,N*2C
$GPGGA,181231.353,4943.8212,N,01323.5909,E,0,00,,358.2,M,46.4,M,,0000*71
$GPGLL,4943.8212,N,01323.5909,E,181231.353,V,N*49
$GPGSA,A,1,,,,,,,,,,,,,,,*1E
$GPGSV,3,1,11,21,58,178,,30,54,297,,29,52,071,29,31,36,225,*76
$GPGSV,3,2,11,25,29,134,21,16,27,305,,05,19,051,,06,13,267,*7B
$GPGSV,3,3,11,13,04,341,,18,03,155,,23,01,311,*41
$GPRMC,181231.353,V,4943.8212,