$GPGGA,152608.500,5043.81904,N,01323.75279,E,1,2,666.6,359.7,M,46.0,M,,*6A
$GPGLL,4943.81904,N,01323.75279,E,152608.500,A*3A
$GPRMC,152608.500,A,4943.81904,N,01323.75279,E,0.80,131.6,021210,0.0,E*5B
$GPVTG,131.6,T,131.6,M,0.80,N,1.48,K*4B
$GPGGA,152608.500,4943.81904,N,01323.75279,E,1,2,666.6,359.7,M,46.0,M,,*6A
$GPGLL,4943.81904,N,01323.75279,E,152608.500,A*3A
$GPRMC,152608.500,A,4943.81904,N,01323.75279,E,0.80,131.6,021210,0.0,E*5B
$GPVTG,131.6,T,131.6,M,0.80,N,1.48,K*4B
$GPGGA,152608.500,4943.81904,N,01323.75279,E,1,2,666.6,359.7,M,46.0,M,,*6A
$GPGLL,4943.81904,N,01323.75279,E,152608.500,A*3A
$GPRMC,152608.500,A,4943.81904,N,01323.75279,E,0.80,131.6,021210,0.0,E*5B
$GPVTG,131.6,T,131.6,M,0.80,N,1.48,K*4B
$GPGSA,A,3,22,,,,,,,,,,,,666.6,666.6,666.6*32
$GPGSV,1,1,01,31,02,115,14*48
$GPGGA,152608.500,4943.81904,N,01323.75279,E,1,2,666.6,359.7,M,46.0,M,,*6A
$GPGLL,4943.81904,N,01323.75279,E,152608.500,A*3A
$GPRMC,152608.500,A,4943.81904,N,01323.75279,E,0.80,131.6,021210,0.0,E*5B
$GPVTG,131.6,T,131.6,M,0.80,N,1.48,K*4B
$GPGGA,152608.500,4943.81904,N,01323.75279,E,1,2,666.6,359.7,M,46.0,M,,*6A
$GPGLL,4943.81904,N,01323.75279,E,152608.500,A*3A
$GPRMC,152608.500,A,4943.81904,N,01323.75279,E,0.80,131.6,021210,0.0,E*5B
$GPVTG,131.6,T,131.6,M,0.80,N,1.48,K*4B
$GPGGA,152608.500,4943.81904,N,01323.75279,E,1,2,666.6,359.7,M,46.0,M,,*6A
$GPGLL,4943.81904,N,01323.75279,E,152608.500,A*3A
$GPRMC,152608.500,A,4943.81904,N,01323.75279,E,0.80,131.6,021210,0.0,E*5B
$GPVTG,131.6,T,131.6,M,0.80,N,1.48,K*4B
$GPGGA,152608.500,4943.81904,N,01323.75279,E,1,2,666.6,359.7,M,46.0,M,,*6A
$GPGLL,4943.81904,N,01323.75279,E,152608.500,A*3A
$GPRMC,152608.500,A,4943.81904,N,01323.75279,E,0.80,131.6,021210,0.0,E*5B
$GPVTG,131.6,T,131.6,M,0.80,N,1.48,K*4B
$GPGGA,152608.500,4943.81904,N,01323.75279,E,1,2,666.6,359.7,M,46.0,M,,*6A
$GPGLL,4943.81904,N,01323.75279,E,152608.500,A*3A
$GPRMC,152608.500,A,4943.81904,N,01323.75279,E,0.80,131.6,021210,0.0,E*5B
$GPVTG,131.6,T,131.6,M,0.80,N,1.48,K*4B
$GPGSA,A,3,22,,,,,,,,,,,,666.6,666.6,666.6*32
$GPGSV,1,1,01,31,02,115,14*48
$GPGGA,152608.500,4943.81904,N,01323.75279,E,1,2,666.6,359.7,M,46.0,M,,*6A
$GPGLL,4943.81904,N,01323.75279,E,152608.500,A*3A
$GPRMC,152608.500,A,4943.81904,N,01323.75279,E,0.80,131.6,021210,0.0,E*5B
$GPVTG,131.6,T,131.6,M,0.80,N,1.48,K*4B
$GPGGA,152608.500,4943.81904,N,01323.75279,E,1,2,666.6,359.7,M,46.0,M,,*6A
$GPGLL,4943.81904,N,01323.75279,E,152608.500,A*3A
$GPRMC,152608.500,A,4943.81904,N,01323.75279,E,0.80,131.6,021210,0.0,E*5B
$GPVTG,131.6,T,131.6,M,0.80,N,1.48,K*4B
$GPGGA,152608.500,4943.81904,N,01323.75279,E,1,2,666.6,359.7,M,46.0,M,,*6A
$GPGLL,4943.81904,N,01323.75279,E,152608.500,A*3A
$GPRMC,152608.500,A,4943.81904,N,01323.75279,E,0.80,131.6,021210,0.0,E*5B
$GPVTG,131.6,T,131.6,M,0.80,N,1.48,K*4B
$GPGGA,152608.500,4943.81904,N,01323.75279,E,1,2,666.6,359.7,M,46.0,M,,*6A
$GPGLL,4943.81904,N,01323.75279,E,152608.500,A*3A
$GPRMC,152608.500,A,4943.81904,N,01323.75279,E,0.80,131.6,021210,0.0,E*5B
$GPVTG,131.6,T,131.6,M,0.80,N,1.48,K*4B
$GPGGA,152608.500,4943.81904,N,01323.75279,E,1,2,666.6,359.7,M,46.0,M,,*6A
$GPGLL,4943.81904,N,01323.75279,E,152608.500,A*3A
$GPRMC,152608.500,A,4943.81904,N,01323.75279,E,0.80,131.6,021210,0.0,E*5B
$GPVTG,131.6,T,131.6,M,0.80,N,1.48,K*4B
$GPGSA,A,3,22,,,,,,,,,,,,666.6,666.6,666.6*32
$GPGSV,1,1,01,31,02,115,14*48
$GPGGA,152608.500,4943.81904,N,01323.75279,E,1,2,666.6,359.7,M,46.0,M,,*6A
$GPGLL,4943.81904,N,01323.75279,E,152608.500,A*3A
$GPRMC,152608.500,A,4943.81904,N,01323.75279,E,0.80,131.6,021210,0.0,E*5B
$GPVTG,131.6,T,131.6,M,0.80,N,1.48,K*4B
$GPGGA,152608.500,4943.81904,N,01323.75279,E,1,1,666.6,359.7,M,46.0,M,,*69
$GPGLL,4943.81904,N,01323.75279,E,152608.500,A*3A
$GPRMC,152608.500,A,4943.81904,N,01323.75279,E,0.80,131.6,021210,0.0,E*5B
$GPVTG,131.6,T,131.6,M,0.80,N,1.48,K*4B
$GPGGA,152608.500,4943.81904,N,01323.75279,E,1,1,666.6,359.7,M,46.0,M,,*69
$GPGLL,4943.81904,N,01323.75279,E,152608.500,A*3A
$GPRMC,152608.500,A,4943.81904,N,01323.75279,E,0.80,131.6,021210,0.0,E*5B
$GPVTG,131.6,T,131.6,M,0.80,N,1.48,K*4B
$GPGGA,152608.500,4943.81904,N,01323.75279,E,1,1,666.6,359.7,M,46.0,M,,*69
$GPGLL,4943.81904,N,01323.75279,E,152608.500,A*3A
$GPRMC,152608.500,A,4943.81904,N,01323.75279,E,0.80,131.6,021210,0.0,E*5B
$GPVTG,131.6,T,131.6,M,0.80,N,1.48,K*4B
$GPGGA,152608.500,4943.81904,N,01323.75279,E,1,1,666.6,359.7,M,46.0,M,,*69
$GPGLL,4943.81904,N,01323.75279,E,152608.500,A*3A
$GPRMC,152608.500,A,4943.81904,N,01323.75279,E,0.80,131.6,021210,0.0,E*5B
$GPVTG,131.6,T,131.6,M,0.80,N,1.48,K*4B
$GPGSA,A,3,22,,,,,,,,,,,,666.6,666.6,666.6*32
$GPGGA,152608.500,4943.81904,N,01323.75279,E,1,1,666.6,359.7,M,46.0,M,,*69
$GPGLL,4943.81904,N,01323.75279,E,152608.500,A*3A
$GPRMC,152608.500,A,4943.81904,N,01323.75279,E,0.80,131.6,021210,0.0,E*5B
$GPVTG,131.6,T,131.6,M,0.80,N,1.48,K*4B
$GPGGA,152608.500,4943.81904,N,01323.75279,E,1,1,666.6,359.7,M,46.0,M,,*69
$GPGLL,4943.81904,N,01323.75279,E,152608.500,A*3A
$GPRMC,152608.500,A,4943.81904,N,01323.75279,E,0.80,131.6,021210,0.0,E*5B
$GPVTG,131.6,T,131.6,M,0.80,N,1.48,K*4B
$GPGGA,152608.500,4943.81904,N,01323.75279,E,1,1,666.6,359.7,M,46.0,M,,*69
$GPGLL,4943.81904,N,01323.75279,E,152608.500,A*3A
$GPRMC,152608.500,A,4943.81904,N,01323.75279,E,0.80,131.6,021210,0.0,E*5B
$GPVTG,131.6,T,131.6,M,0.80,N,1.48,K*4B
$GPGGA,152608.500,4943.81904,N,01323.75279,E,1,1,666.6,359.7,M,46.0,M,,*69
$GPGLL,4943.81904,N,01323.75279,E,152608.500,A*3A
$GPRMC,152608.500,A,4943.81904,N,01323.75279,E,0.80,131.6,021210,0.0,E*5B
$GPVTG,131.6,T,131.6,M,0.80,N,1.48,K*4B
$GPGGA,152608.500,4943.81904,N,01323.75279,E,1,1,666.6,359.7,M,46.0,M,,*69
$GPGLL,4943.81904,N,01323.75279,E,152608.500,A*3A
$GPRMC,152608.500,A,4943.81904,N,01323.75279,E,0.80,131.6,021210,0.0,E*5B
$GPVTG,131.6,T,131.6,M,0.80,N,1.48,K*4B
$GPGSA,A,3,22,,,,,,,,,,,,666.6,666.6,666.6*32
$GPGGA,152608.500,4943.81904,N,01323.75279,E,1,1,666.6,359.7,M,46.0,M,,*69
$GPGLL,4943.81904,N,01323.75279,E,152608.500,A*3A
$GPRMC,152608.500,A,4943.81904,N,01323.75279,E,0.80,131.6,021210,0.0,E*5B
$GPVTG,131.6,T,131.6,M,0.80,N,1.48,K*4B
$GPGGA,152608.500,4943.81904,N,01323.75279,E,1,1,666.6,359.7,M,46.0,M,,*69
$GPGLL,4943.81904,N,01323.75279,E,152608.500,A*3A
$GPRMC,152608.500,A,4943.81904,N,01323.75279,E,0.80,131.6,021210,0.0,E*5B
$GPVTG,131.6,T,131.6,M,0.80,N,1.48,K*4B
$GPGGA,152608.500,4943.81904,N,01323.75279,E,1,1,666.6,359.7,M,46.0,M,,*69
$GPGLL,4943.81904,N,01323.75279,E,152608.500,A*3A
$GPRMC,152608.500,A,4943.81904,N,01323.75279,E,0.80,131.6,021210,0.0,E*5B
$GPVTG,131.6,T,131.6,M,0.80,N,1.48,K*4B
$GPGGA,152608.500,4943.81904,N,01323.75279,E,1,1,666.6,359.7,M,46.0,M,,*69
$GPGLL,4943.81904,N,01323.75279,E,152608.500,A*3A
$GPRMC,152608.500,A,4943.81904,N,01323.75279,E,0.80,131.6,021210,0.0,E*5B
$GPVTG,131.6,T,131.6,M,0.80,N,1.48,K*4B
$GPGGA,152608.500,4943.81904,N,01323.75279,E,1,1,666.6,359.7,M,46.0,M,,*69
$GPGLL,4943.81904,N,01323.75279,E,152608.500,A*3A
$GPRMC,152608.500,A,4943.81904,N,01323.75279,E,0.80,131.6,021210,0.0,E*5B
$GPVTG,131.6,T,131.6,M,0.80,N,1.48,K*4B
$GPGSA,A,3,22,,,,,,,,,,,,666.6,666.6,666.6*32
$GPGGA,152608.500,4943.81904,N,01323.75279,E,1,1,666.6,359.7,M,46.0,M,,*69
$GPGLL,4943.81904,N,01323.75279,E,152608.500,A*3A
$GPRMC,152608.500,A,4943.81904,N,01323.75279,E,0.80,131.6,021210,0.0,E*5B
$GPVTG,131.6,T,131.6,M,0.80,N,1.48,K*4B
$GPGGA,152608.500,4943.81904,N,01323.75279,E,1,1,666.6,359.7,M,46.0,M,,*69
$GPGLL,4943.81904,N,01323.75279,E,152608.500,A*3A
$GPRMC,152608.500,A,4943.81904,N,01323.75279,E,0.80,131.6,021210,0.0,E*5B
$GPVTG,131.6,T,131.6,M,0.80,N,1.48,K*4B
$GPGGA,152608.500,4943.81904,N,01323.75279,E,1,1,666.6,359.7,M,46.0,M,,*69
$GPGLL,4943.81904,N,01323.75279,E,152608.500,A*3A
$GPRMC,152608.500,A,4943.81904,N,01323.75279,E,0.80,131.6,021210,0.0,E*5B
$GPVTG,131.6,T,131.6,M,0.80,N,1.48,K*4B
$GPGGA,152608.500,4943.81904,N,01323.75279,E,1,1,666.6,359.7,M,46.0,M,,*69
$GPGLL,4943.81904,N,01323.75279,E,152608.500,A*3A
$GPRMC,152608.500,A,4943.81904,N,01323.75279,E,0.80,131.6,021210,0.0,E*5B
$GPVTG,131.6,T,131.6,M,0.80,N,1.48,K*4B
$GPGGA,152608.500,4943.81904,N,01323.75279,E,1,1,666.6,359.7,M,46.0,M,,*69
$GPGLL,4943.81904,N,01323.75279,E,152608.500,A*3A
$GPRMC,152608.500,A,4943.81904,N,01323.75279,E,0.80,131.6,021210,0.0,E*5B
$GPVTG,131.6,T,131.6,M,0.80,N,1.48,K*4B
$GPGSA,A,3,22,,,,,,,,,,,,666.6,666.6,666.6*32
$GPGGA,152608.500,4943.81904,N,01323.75279,E,1,1,666.6,359.7,M,46.0,M,,*69
$GPGLL,4943.81904,N,01323.75279,E,152608.500,A*3A
$GPRMC,152608.500,A,4943.81904,N,01323.75279,E,0.80,131.6,021210,0.0,E*5B
$GPVTG,131.6,T,131.6,M,0.80,N,1.48,K*4B
$GPGGA,152608.500,4943.81904,N,01323.75279,E,1,1,666.6,359.7,M,46.0,M,,*69
$GPGLL,4943.81904,N,01323.75279,E,152608.500,A*3A
$GPRMC,152608.500,A,4943.81904,N,01323.75279,E,0.80,131.6,021210,0.0,E*5B
$GPVTG,131.6,T,131.6,M,0.80,N,1.48,K*4B
$GPGGA,152608.500,4943.81904,N,01323.75279,E,1,1,666.6,359.7,M,46.0,M,,*69
$GPGLL,4943.81904,N,01323.75279,E,152608.500,A*3A
$GPRMC,152608.500,A,4943.81904,N,01323.75279,E,0.80,131.6,021210,0.0,E*5B
$GPVTG,131.6,T,131.6,M,0.80,N,1.48,K*4B
$GPGGA,152608.500,4943.81904,N,01323.75279,E,1,1,666.6,359.7,M,46.0,M,,*69
$GPGLL,4943.81904,N,01323.75279,E,152608.500,A*3A
$GPRMC,152608.500,A,4943.81904,N,01323.75279,E,0.80,131.6,021210,0.0,E*5B
$GPVTG,131.6,T,131.6,M,0.80,N,1.48,K*4B
$GPGGA,152608.500,4943.81904,N,01323.75279,E,1,1,666.6,359.7,M,46.0,M,,*69
$GPGLL,4943.81904,N,01323.75279,E,152608.500,A*3A
$GPRMC,152608.500,A,4943.81904,N,01323.75279,E,0.80,131.6,021210,0.0,E*5B
$GPVTG,131.6,T,131.6,M,0.80,N,1.48,K*4B
$GPGSA,A,3,22,,,,,,,,,,,,666.6,666.6,666.6*32
$GPGGA,152608.500,4943.81904,N,01323.75279,E,1,1,666.6,359.7,M,46.0,M,,*69
$GPGLL,4943.81904,N,01323.75279,E,152608.500,A*3A
$GPRMC,152608.500,A,4943.81904,N,01323.75279,E,0.80,131.6,021210,0.0,E*5B
$GPVTG,131.6,T,131.6,M,0.80,N,1.48,K*4B
$GPGGA,152608.500,4943.81904,N,01323.75279,E,1,1,666.6,359.7,M,46.0,M,,*69
$GPGLL,4943.81904,N,01323.75279,E,152608.500,A*3A
$GPRMC,152608.500,A,4943.81904,N,01323.75279,E,0.80,131.6,021210,0.0,E*5B
$GPVTG,131.6,T,131.6,M,0.80,N,1.48,K*4B
$GPGGA,152608.500,4943.81904,N,01323.75279,E,1,1,666.6,359.7,M,46.0,M,,*69
$GPGLL,4943.81904,N,01323.75279,E,152608.500,A*3A
$GPRMC,152608.500,A,4943.81904,N,01323.75279,E,0.80,131.6,021210,0.0,E*5B
$GPVTG,131.6,T,131.6,M,0.80,N,1.48,K*4B
$GPGGA,152608.500,4943.81904,N,01323.75279,E,1,1,666.6,359.7,M,46.0,M,,*69
$GPGLL,4943.81904,N,01323.75279,E,152608.500,A*3A
$GPRMC,152608.500,A,4943.81904,N,01323.75279,E,0.80,131.6,021210,0.0,E*5B
$GPVTG,131.6,T,131.6,M,0.80,N,1.48,K*4B
$GPGGA,152608.500,4943.81904,N,01323.75279,E,1,1,666.6,359.7,M,46.0,M,,*69
$GPGLL,4943.81904,N,01323.75279,E,152608.500,A*3A
$GPRMC,152608.500,A,4943.81904,N,01323.75279,E,0.80,131.6,021210,0.0,E*5B
$GPVTG,131.6,T,131.6,M,0.80,N,1.48,K*4B
$GPGSA,A,3,22,,,,,,,,,,,,666.6,666.6,666.6*32
$GPGGA,152608.500,4943.81904,N,01323.75279,E,1,1,666.6,359.7,M,46.0,M,,*69
$GPGLL,4943.81904,N,01323.75279,E,152608.500,A*3A
$GPRMC,152608.500,A,4943.81904,N,01323.75279,E,0.80,131.6,021210,0.0,E*5B
$GPVTG,131.6,T,131.6,M,0.80,N,1.48,K*4B
$GPGGA,152608.500,4943.81904,N,01323.75279,E,1,1,666.6,359.7,M,46.0,M,,*69
$GPGLL,4943.81904,N,01323.75279,E,152608.500,A*3A
$GPRMC,152608.500,A,4943.81904,N,01323.75279,E,0.80,131.6,021210,0.0,E*5B
$GPVTG,131.6,T,131.6,M,0.80,N,1.48,K*4B
$GPGGA,152608.500,4943.81904,N,01323.75279,E,1,1,666.6,359.7,M,46.0,M,,*69
$GPGLL,4943.81904,N,01323.75279,E,152608.500,A*3A
$GPRMC,152608.500,A,4943.81904,N,01323.75279,E,0.80,131.6,021210,0.0,E*5B
$GPVTG,131.6,T,131.6,M,0.80,N,1.48,K*4B
$GPGGA,152608.500,4943.81904,N,01323.75279,E,1,1,666.6,359.7,M,46.0,M,,*69
$GPGLL,4943.81904,N,01323.75279,E,152608.500,A*3A
$GPRMC,152608.500,A,4943.81904,N,01323.75279,E,0.80,131.6,021210,0.0,E*5B
$GPVTG,131.6,T,131.6,M,0.80,N,1.48,K*4B
$GPGGA,152608.500,4943.81904,N,01323.75279,E,1,1,666.6,359.7,M,46.0,M,,*69
$GPGLL,4943.81904,N,01323.75279,E,152608.500,A*3A
$GPRMC,152608.500,A,4943.81904,N,01323.75279,E,0.80,131.6,021210,0.0,E*5B
$GPVTG,131.6,T,131.6,M,0.80,N,1.48,K*4B
$GPGSA,A,3,22,,,,,,,,,,,,666.6,666.6,666.6*32
$GPGGA,152608.500,4943.81904,N,01323.75279,E,1,1,666.6,359.7,M,46.0,M,,*69
$GPGLL,4943.81904,N,01323.75279,E,152608.500,A*3A
$GPRMC,152608.500,A,4943.81904,N,01323.75279,E,0.80,131.6,021210,0.0,E*5B
$GPVTG,131.6,T,131.6,M,0.80,N,1.48,K*4B
$GPGGA,152608.500,4943.81904,N,01323.75279,E,1,1,666.6,359.7,M,46.0,M,,*69
$GPGLL,4943.81904,N,01323.75279,E,152608.500,A*3A
$GPRMC,152608.500,A,4943.81904,N,01323.75279,E,0.80,131.6,021210,0.0,E*5B
$GPVTG,131.6,T,131.6,M,0.80,N,1.48,K*4B
$GPGGA,152608.500,4943.81904,N,01323.75279,E,1,1,666.6,359.7,M,46.0,M,,*69
$GPGLL,4943.81904,N,01323.75279,E,152608.500,A*3A
$GPRMC,152608.500,A,4943.81904,N,01323.75279,E,0.80,131.6,021210,0.0,E*5B
$GPVTG,131.6,T,131.6,M,0.80,N,1.48,K*4B
$GPGGA,152608.500,4943.81904,N,01323.75279,E,1,1,666.6,359.7,M,46.0,M,,*69
$GPGLL,4943.81904,N,01323.75279,E,152608.500,A*3A
$GPRMC,152608.500,A,4943.81904,N,01323.75279,E,0.80,131.6,021210,0.0,E*5B
$GPVTG,131.6,T,131.6,M,0.80,N,1.48,K*4B
$GPGGA,152608.500,4943.81904,N,01323.75279,E,1,1,666.6,359.7,M,46.0,M,,*69
$GPGLL,4943.81904,N,01323.75279,E,152608.500,A*3A
$GPRMC,152608.500,A,4943.81904,N,01323.75279,E,0.80,131.6,021210,0.0,E*5B
$GPVTG,131.6,T,131.6,M,0.80,N,1.48,K*4B
$GPGSA,A,3,22,,,,,,,,,,,,666.6,666.6,666.6*32
$GPGGA,152608.500,4943.81904,N,01323.75279,E,1,1,666.6,359.7,M,46.0,M,,*69
$GPGLL,4943.81904,N,01323.75279,E,152608.500,A*3A
$GPRMC,152608.500,A,4943.81904,N,01323.75279,E,0.80,131.6,021210,0.0,E*5B
$GPVTG,131.6,T,131.6,M,0.80,N,1.48,K*4B
$GPGGA,152608.500,4943.81904,N,01323.75279,E,1,1,666.6,359.7,M,46.0,M,,*69
$GPGLL,4943.81904,N,01323.75279,E,152608.500,A*3A
$GPRMC,152608.500,A,4943.81904,N,01323.75279,E,0.80,131.6,021210,0.0,E*5B
$GPVTG,131.6,T,131.6,M,0.80,N,1.48,K*4B
$GPGGA,152608.500,4943.81904,N,01323.75279,E,1,1,666.6,359.7,M,46.0,M,,*69
$GPGLL,4943.81904,N,01323.75279,E,152608.500,A*3A
$GPRMC,152608.500,A,4943.81904,N,01323.75279,E,0.80,131.6,021210,0.0,E*5B
$GPVTG,131.6,T,131.6,M,0.80,N,1.48,K*4B
$GPGGA,152608.500,4943.81904,N,01323.75279,E,1,1,666.6,359.7,M,46.0,M,,*69
$GPGLL,4943.81904,N,01323.75279,E,152608.500,A*3A
$GPRMC,152608.500,A,4943.81904,N,01323.75279,E,0.80,131.6,021210,0.0,E*5B
$GPVTG,131.6,T,131.6,M,0.80,N,1.48,K*4B
$GPGGA,152608.500,4943.81904,N,01323.75279,E,1,1,666.6,359.7,M,46.0,M,,*69
$GPGLL,4943.81904,N,01323.75279,E,152608.500,A*3A
$GPRMC,152608.500,A,4943.81904,N,01323.75279,E,0.80,131.6,021210,0.0,E*5B
$GPVTG,131.6,T,131.6,M,0.80,N,1.48,K*4B
$GPGSA,A,3,22,,,,,,,,,,,,666.6,666.6,666.6*32
$GPGGA,152608.500,4943.81904,N,01323.75279,E,1,1,666.6,359.7,M,46.0,M,,*69
$GPGLL,4943.81904,N,01323.75279,E,152608.500,A*3A
$GPRMC,152608.500,A,4943.81904,N,01323.75279,E,0.80,131.6,021210,0.0,E*5B
$GPVTG,131.6,T,131.6,M,0.80,N,1.48,K*4B
$GPGGA,152608.500,4943.81904,N,01323.75279,E,1,1,666.6,359.7,M,46.0,M,,*69
$GPGLL,4943.81904,N,01323.75279,E,152608.500,A*3A
$GPRMC,152608.500,A,4943.81904,N,01323.75279,E,0.80,131.6,021210,0.0,E*5B
$GPVTG,131.6,T,131.6,M,0.80,N,1.48,K*4B
$GPGGA,152608.500,4943.81904,N,01323.75279,E,1,1,666.6,359.7,M,46.0,M,,*69
$GPGLL,4943.81904,N,01323.75279,E,152608.500,A*3A
$GPRMC,152608.500,A,4943.81904,N,01323.75279,E,0.80,131.6,021210,0.0,E*5B
$GPVTG,131.6,T,131.6,M,0.80,N,1.48,K*4B
$GPGGA,152608.500,4943.81904,N,01323.75279,E,1,1,666.6,359.7,M,46.0,M,,*69
$GPGLL,4943.81904,N,01323.75279,E,152608.500,A*3A
$GPRMC,152608.500,A,4943.81904,N,01323.75279,E,0.80,131.6,021210,0.0,E*5B
$GPVTG,131.6,T,131.6,M,0.80,N,1.48,K*4B
$GPGGA,152608.500,4943.81904,N,01323.75279,E,1,1,666.6,359.7,M,46.0,M,,*69
$GPGLL,4943.81904,N,01323.75279,E,152608.500,A*3A
$GPRMC,152608.500,A,4943.81904,N,01323.75279,E,0.80,131.6,021210,0.0,E*5B
$GPVTG,131.6,T,131.6,M,0.80,N,1.48,K*4B
$GPGSA,A,3,22,,,,,,,,,,,,666.6,666.6,666.6*32
$GPGGA,152608.500,4943.81904,N,01323.75279,E,1,1,666.6,359.7,M,46.0,M,,*69
$GPGLL,4943.81904,N,01323.75279,E,152608.500,A*3A
$GPRMC,152608.500,A,4943.81904,N,01323.75279,E,0.80,131.6,021210,0.0,E*5B
$GPVTG,131.6,T,131.6,M,0.80,N,1.48,K*4B
$GPGGA,152608.500,4943.81904,N,01323.75279,E,1,1,666.6,359.7,M,46.0,M,,*69
$GPGLL,4943.81904,N,01323.75279,E,152608.500,A*3A
$GPRMC,152608.500,A,4943.81904,N,01323.75279,E,0.80,131.6,021210,0.0,E*5B
$GPVTG,131.6,T,131.6,M,0.80,N,1.48,K*4B
$GPGGA,152608.500,4943.81904,N,01323.75279,E,1,1,666.6,359.7,M,46.0,M,,*69
$GPGLL,4943.81904,N,01323.75279,E,152608.500,A*3A
$GPRMC,152608.500,A,4943.81904,N,01323.75279,E,0.80,131.6,021210,0.0,E*5B
$GPVTG,131.6,T,131.6,M,0.80,N,1.48,K*4B
$GPGGA,152608.500,4943.81904,N,01323.75279,E,1,1,666.6,359.7,M,46.0,M,,*69
$GPGLL,4943.81904,N,01323.75279,E,152608.500,A*3A
$GPRMC,152608.500,A,4943.81904,N,01323.75279,E,0.80,131.6,021210,0.0,E*5B
$GPVTG,131.6,T,131.6,M,0.80,N,1.48,K*4B
$GPGGA,152608.500,4943.81904,N,01323.75279,E,1,1,666.6,359.7,M,46.0,M,,*69
$GPGLL,4943.81904,N,01323.75279,E,152608.500,A*3A
$GPRMC,152608.500,A,4943.81904,N,01323.75279,E,0.80,131.6,021210,0.0,E*5B
$GPVTG,131.6,T,131.6,M,0.80,N,1.48,K*4B
$GPGSA,A,3,22,,,,,,,,,,,,666.6,666.6,666.6*32
$GPGGA,152608.500,4943.81904,N,01323.75279,E,1,1,666.6,359.7,M,46.0,M,,*69
$GPGLL,4943.81904,N,01323.75279,E,152608.500,A*3A
$GPRMC,152608.500,A,4943.81904,N,01323.75279,E,0.80,131.6,021210,0.0,E*5B
$GPVTG,131.6,T,131.6,M,0.80,N,1.48,K*4B
$GPGGA,152608.500,4943.81904,N,01323.75279,E,1,1,666.6,359.7,M,46.0,M,,*69
$GPGLL,4943.81904,N,01323.75279,E,152608.500,A*3A
$GPRMC,152608.500,A,4943.81904,N,01323.75279,E,0.80,131.6,021210,0.0,E*5B
$GPVTG,131.6,T,131.6,M,0.80,N,1.48,K*4B
$GPGGA,152608.500,4943.81904,N,01323.75279,E,1,1,666.6,359.7,M,46.0,M,,*69
$GPGLL,4943.81904,N,01323.75279,E,152608.500,A*3A
$GPRMC,152608.500,A,4943.81904,N,01323.75279,E,0.80,131.6,021210,0.0,E*5B
$GPVTG,131.6,T,131.6,M,0.80,N,1.48,K*4B
$GPGGA,152608.500,4943.81904,N,01323.75279,E,1,1,666.6,359.7,M,46.0,M,,*69
$GPGLL,4943.81904,N,01323.75279,E,152608.500,A*3A
$GPRMC,152608.500,A,4943.81904,N,01323.75279,E,0.80,131.6,021210,0.0,E*5B
$GPVTG,131.6,T,131.6,M,0.80,N,1.48,K*4B
$GPGGA,152608.500,4943.81904,N,01323.75279,E,1,1,666.6,359.7,M,46.0,M,,*69
$GPGLL,4943.81904,N,01323.75279,E,152608.500,A*3A
$GPRMC,152608.500,A,4943.81904,N,01323.75279,E,0.80,131.6,021210,0.0,E*5B
$GPVTG,131.6,T,131.6,M,0.80,N,1.48,K*4B
$GPGSA,A,3,22,,,,,,,,,,,,666.6,666.6,666.6*32
$GPGGA,152608.500,4943.81904,N,01323.75279,E,1,1,666.6,359.7,M,46.0,M,,*69
$GPGLL,4943.81904,N,01323.75279,E,152608.500,A*3A
$GPRMC,152608.500,A,4943.81904,N,01323.75279,E,0.80,131.6,021210,0.0,E*5B
$GPVTG,131.6,T,131.6,M,0.80,N,1.48,K*4B
$GPGGA,152608.500,4943.81904,N,01323.75279,E,1,1,666.6,359.7,M,46.0,M,,*69
$GPGLL,4943.81904,N,01323.75279,E,152608.500,A*3A
$GPRMC,152608.500,A,4943.81904,N,01323.75279,E,0.80,131.6,021210,0.0,E*5B
$GPVTG,131.6,T,131.6,M,0.80,N,1.48,K*4B
$GPGGA,152608.500,4943.81904,N,01323.75279,E,1,1,666.6,359.7,M,46.0,M,,*69
$GPGLL,4943.81904,N,01323.75279,E,152608.500,A*3A
$GPRMC,152608.500,A,4943.81904,N,01323.75279,E,0.80,131.6,021210,0.0,E*5B
$GPVTG,131.6,T,131.6,M,0.80,N,1.48,K*4B
$GPGGA,152608.500,4943.81904,N,01323.75279,E,1,1,666.6,359.7,M,46.0,M,,*69
$GPGLL,4943.81904,N,01323.75279,E,152608.500,A*3A
$GPRMC,152608.500,A,4943.81904,N,01323.75279,E,0.80,131.6,021210,0.0,E*5B
$GPVTG,131.6,T,131.6,M,0.80,N,1.48,K*4B
$GPGGA,152608.500,4943.81904,N,01323.75279,E,1,1,666.6,359.7,M,46.0,M,,*69
$GPGLL,4943.81904,N,01323.75279,E,152608.500,A*3A
$GPRMC,152608.500,A,4943.81904,N,01323.75279,E,0.80,131.6,021210,0.0,E*5B
$GPVTG,131.6,T,131.6,M,0.80,N,1.48,K*4B
$GPGSA,A,3,22,,,,,,,,,,,,666.6,666.6,666.6*32
$GPGGA,152608.500,4943.81904,N,01323.75279,E,1,1,666.6,359.7,M,46.0,M,,*69
$GPGLL,4943.81904,N,01323.75279,E,152608.500,A*3A
$GPRMC,152608.500,A,4943.81904,N,01323.75279,E,0.80,131.6,021210,0.0,E*5B
$GPVTG,131.6,T,131.6,M,0.80,N,1.48,K*4B
$GPGGA,152608.500,4943.81904,N,01323.75279,E,1,1,666.6,359.7,M,46.0,M,,*69
$GPGLL,4943.81904,N,01323.75279,E,152608.500,A*3A
$GPRMC,152608.500,A,4943.81904,N,01323.75279,E,0.80,131.6,021210,0.0,E*5B
$GPVTG,131.6,T,131.6,M,0.80,N,1.48,K*4B
$GPGGA,152608.500,4943.81904,N,01323.75279,E,1,1,666.6,359.7,M,46.0,M,,*69
$GPGLL,4943.81904,N,01323.75279,E,152608.500,A*3A
$GPRMC,152608.500,A,4943.81904,N,01323.75279,E,0.80,131.6,021210,0.0,E*5B
$GPVTG,131.6,T,131.6,M,0.80,N,1.48,K*4B
$GPGGA,152608.500,4943.81904,N,01323.75279,E,1,1,666.6,359.7,M,46.0,M,,*69
$GPGLL,4943.81904,N,01323.75279,E,152608.500,A*3A
$GPRMC,152608.500,A,4943.81904,N,01323.75279,E,0.80,131.6,021210,0.0,E*5B
$GPVTG,131.6,T,131.6,M,0.80,N,1.48,K*4B
$GPGGA,152608.500,4943.81904,N,01323.75279,E,1,2,666.6,359.7,M,46.0,M,,*6A
$GPGLL,4943.81904,N,01323.75279,E,152608.500,A*3A
$GPRMC,152608.500,A,4943.81904,N,01323.75279,E,0.80,131.6,021210,0.0,E*5B
$GPVTG,131.6,T,131.6,M,0.80,N,1.48,K*4B
$GPGSA,A,0,,,,,,,,,,,,,0.0,0.0,0.0*31
$GPGSA,A,0,,,,,,,,,,,,,0.0,0.0,0.0*31
$GPGSA,A,0,,,,,,,,,,,,,0.0,0.0,0.0*31
$GPGSA,A,0,,,,,,,,,,,,,0.0,0.0,0.0*31
$GPGSA,A,0,,,,,,,,,,,,,0.0,0.0,0.0*31
$GPGSA,A,0,,,,,,,,,,,,,0.0,0.0,0.0*31
$GPGSA,A,0,,,,,,,,,,,,,0.0,0.0,0.0*31
$GPGSA,A,0,,,,,,,,,,,,,0.0,0.0,0.0*31
$GPGSA,A,0,,,,,,,,,,,,,0.0,0.0,0.0*31
$GPGSA,A,0,,,,,,,,,,,,,0.0,0.0,0.0*31
$GPGSA,A,0,,,,,,,,,,,,,0.0,0.0,0.0*31
$GPGSA,A,0,,,,,,,,,,,,,0.0,0.0,0.0*31
$GPGSA,A,0,,,,,,,,,,,,,0.0,0.0,0.0*31
$GPGSA,A,0,,,,,,,,,,,,,0.0,0.0,0.0*31
$GPGSA,A,0,,,,,,,,,,,,,0.0,0.0,0.0*31
$GPGSA,A,0,,,,,,,,,,,,,0.0,0.0,0.0*31
$GPGSA,A,0,,,,,,,,,,,,,0.0,0.0,0.0*31
$GPGSA,A,0,,,,,,,,,,,,,0.0,0.0,0.0*31
$GPGSA,A,0,,,,,,,,,,,,,0.0,0.0,0.0*31
$GPGSA,A,0,,,,,,,,,,,,,0.0,0.0,0.0*31
$GPGSA,A,0,,,,,,,,,,,,,0.0,0.0,0.0*31
$GPGSA,A,0,,,,,,,,,,,,,0.0,0.0,0.0*31
$GPGSA,A,0,,,,,,,,,,,,,0.0,0.0,0.0*31
$GPGSA,A,0,,,,,,,,,,,,,0.0,0.0,0.0*31
$GPGSA,A,0,,,,,,,,,,,,,0.0,0.0,0.0*31
$GPGSA,A,0,,,,,,,,,,,,,0.0,0.0,0.0*31
$GPGSA,A,0,,,,,,,,,,,,,0.0,0.0,0.0*31
$GPGSA,A,0,,,,,,,,,,,,,0.0,0.0,0.0*31
$GPGSA,A,0,,,,,,,,,,,,,0.0,0.0,0.0*31
$GPGSA,A,0,,,,,,,,,,,,,0.0,0.0,0.0*31
$GPGSA,A,0,,,,,,,,,,,,,0.0,0.0,0.0*31
$GPGSA,A,0,,,,,,,,,,,,,0.0,0.0,0.0*31
$GPGSA,A,0,,,,,,,,,,,,,0.0,0.0,0.0*31
$GPGSA,A,0,,,,,,,,,,,,,0.0,0.0,0.0*31
$GPGSA,A,0,,,,,,,,,,,,,0.0,0.0,0.0*31
$GPGSA,A,0,,,,,,,,,,,,,0.0,0.0,0.0*31
$GPGSA,A,0,,,,,,,,,,,,,0.0,0.0,0.0*31
$GPGSA,A,0,,,,,,,,,,,,,0.0,0.0,0.0*31
$GPGSA,A,0,,,,,,,,,,,,,0.0,0.0,0.0*31
$GPGSA,A,0,,,,,,,,,,,,,0.0,0.0,0.0*31
$GPGSA,A,0,,,,,,,,,,,,,0.0,0.0,0.0*31
$GPGSA,A,0,,,,,,,,,,,,,0.0,0.0,0.0*31
$GPGSA,A,0,,,,,,,,,,,,,0.0,0.0,0.0*31
$GPGSA,A,3,22,,,,,,,,,,,,666.6,666.6,666.6*32
$GPGGA,152608.500,4943.81904,N,01323.75279,E,1,0,666.6,359.7,M,46.0,M,,*68
$GPGLL,4943.81904,N,01323.75279,E,152608.500,A*3A
$GPRMC,152608.500,A,4943.81904,N,01323.75279,E,0.80,131.6,021210,0.0,E*5B
$GPVTG,131.6,T,131.6,M,0.80,N,1.48,K*4B
$GPGGA,152608.500,4943.81904,N,01323.75279,E,1,0,666.6,359.7,M,46.0,M,,*68
$GPGLL,4943.81904,N,01323.75279,E,152608.500,A*3A
$GPRMC,152608.500,A,4943.81904,N,01323.75279,E,0.80,131.6,021210,0.0,E*5B
$GPVTG,131.6,T,131.6,M,0.80,N,1.48,K*4B
$GPGGA,152608.500,4943.81904,N,01323.75279,E,1,0,666.6,359.7,M,46.0,M,,*68
$GPGLL,4943.81904,N,01323.75279,E,152608.500,A*3A
$GPRMC,152608.500,A,4943.81904,N,01323.75279,E,0.80,131.6,021210,0.0,E*5B
$GPVTG,131.6,T,131.6,M,0.80,N,1.48,K*4B
$GPGGA,152608.500,4943.81904,N,01323.75279,E,1,0,666.6,359.7,M,46.0,M,,*68
$GPGLL,4943.81904,N,01323.75279,E,152608.500,A*3A
$GPRMC,152608.500,A,4943.81904,N,01323.75279,E,0.80,131.6,021210,0.0,E*5B
$GPVTG,131.6,T,131.6,M,0.80,N,1.48,K*4B
$GPGGA,152608.500,4943.81904,N,01323.75279,E,1,0,666.6,359.7,M,46.0,M,,*68
$GPGLL,4943.81904,N,01323.75279,E,152608.500,A*3A
$GPRMC,152608.500,A,4943.81904,N,01323.75279,E,0.80,131.6,021210,0.0,E*5B
$GPVTG,131.6,T,131.6,M,0.80,N,1.48,K*4B
$GPGSA,A,3,22,,,,,,,,,,,,666.6,666.6,666.6*32
$GPGGA,152608.500,4943.81904,N,01323.75279,E,1,0,666.6,359.7,M,46.0,M,,*68
$GPGLL,4943.81904,N,01323.75279,E,152608.500,A*3A
$GPRMC,152608.500,A,4943.81904,N,01323.75279,E,0.80,131.6,021210,0.0,E*5B
$GPVTG,131.6,T,131.6,M,0.80,N,1.48,K*4B
$GPGGA,152608.500,4943.81904,N,01323.75279,E,1,0,666.6,359.7,M,46.0,M,,*68
$GPGLL,4943.81904,N,01323.75279,E,152608.500,A*3A
$GPRMC,152608.500,A,4943.81904,N,01323.75279,E,0.80,131.6,021210,0.0,E*5B
$GPVTG,131.6,T,131.6,M,0.80,N,1.48,K*4B
$GPGGA,152608.500,4943.81904,N,01323.75279,E,1,0,666.6,359.7,M,46.0,M,,*68
$GPGLL,4943.81904,N,01323.75279,E,152608.500,A*3A
$GPRMC,152608.500,A,4943.81904,N,01323.75279,E,0.80,131.6,021210,0.0,E*5B
$GPVTG,131.6,T,131.6,M,0.80,N,1.48,K*4B
$GPGGA,152608.500,4943.81904,N,01323.75279,E,1,0,666.6,359.7,M,46.0,M,,*68
$GPGLL,4943.81904,N,01323.75279,E,152608.500,A*3A
$GPRMC,152608.500,A,4943.81904,N,01323.75279,E,0.80,131.6,021210,0.0,E*5B
$GPVTG,131.6,T,131.6,M,0.80,N,1.48,K*4B
$GPGGA,152608.500,4943.81904,N,01323.75279,E,1,0,666.6,359.7,M,46.0,M,,*68
$GPGLL,4943.81904,N,01323.75279,E,152608.500,A*3A
$GPRMC,152608.500,A,4943.81904,N,01323.75279,E,0.80,131.6,021210,0.0,E*5B
$GPVTG,131.6,T,131.6,M,0.80,N,1.48,K*4B
$GPGSA,A,3,22,,,,,,,,,,,,666.6,666.6,666.6*32
$GPGGA,152608.500,4943.81904,N,01323.75279,E,1,0,666.6,359.7,M,46.0,M,,*68
$GPGLL,4943.81904,N,01323.75279,E,152608.500,A*3A
$GPRMC,152608.500,A,4943.81904,N,01323.75279,E,0.80,131.6,021210,0.0,E*5B
$GPVTG,131.6,T,131.6,M,0.80,N,1.48,K*4B
$GPGGA,152608.500,4943.81904,N,01323.75279,E,1,0,666.6,359.7,M,46.0,M,,*68
$GPGLL,4943.81904,N,01323.75279,E,152608.500,A*3A
$GPRMC,152608.500,A,4943.81904,N,01323.75279,E,0.80,131.6,021210,0.0,E*5B
$GPVTG,131.6,T,131.6,M,0.80,N,1.48,K*4B
$GPGGA,152608.500,4943.81904,N,01323.75279,E,1,0,666.6,359.7,M,46.0,M,,*68
$GPGLL,4943.81904,N,01323.75279,E,152608.500,A*3A
$GPRMC,152608.500,A,4943.81904,N,01323.75279,E,0.80,131.6,021210,0.0,E*5B
$GPVTG,131.6,T,131.6,M,0.80,N,1.48,K*4B
$GPGGA,152608.500,4943.81904,N,01323.75279,E,1,0,666.6,359.7,M,46.0,M,,*68
$GPGLL,4943.81904,N,01323.75279,E,152608.500,A*3A
$GPRMC,152608.500,A,4943.81904,N,01323.75279,E,0.80,131.6,021210,0.0,E*5B
$GPVTG,131.6,T,131.6,M,0.80,N,1.48,K*4B
$GPGGA,152608.500,4943.81904,N,01323.75279,E,1,0,666.6,359.7,M,46.0,M,,*68
$GPGLL,4943.81904,N,01323.75279,E,152608.500,A*3A
$GPRMC,152608.500,A,4943.81904,N,01323.75279,E,0.80,131.6,021210,0.0,E*5B
$GPVTG,131.6,T,131.6,M,0.80,N,1.48,K*4B
$GPGSA,A,3,22,,,,,,,,,,,,666.6,666.6,666.6*32
$GPGGA,152608.500,4943.81904,N,01323.75279,E,1,0,666.6,359.7,M,46.0,M,,*68
$GPGLL,4943.81904,N,01323.75279,E,152608.500,A*3A
$GPRMC,152608.500,A,4943.81904,N,01323.75279,E,0.80,131.6,021210,0.0,E*5B
$GPVTG,131.6,T,131.6,M,0.80,N,1.48,K*4B
$GPGGA,152608.500,4943.81904,N,01323.75279,E,1,0,666.6,359.7,M,46.0,M,,*68
$GPGLL,4943.81904,N,01323.75279,E,152608.500,A*3A
$GPRMC,152608.500,A,4943.81904,N,01323.75279,E,0.80,131.6,021210,0.0,E*5B
$GPVTG,131.6,T,131.6,M,0.80,N,1.48,K*4B
$GPGGA,152608.500,4943.81904,N,01323.75279,E,1,0,666.6,359.7,M,46.0,M,,*68
$GPGLL,4943.81904,N,01323.75279,E,152608.500,A*3A
$GPRMC,152608.500,A,4943.81904,N,01323.75279,E,0.80,131.6,021210,0.0,E*5B
$GPVTG,131.6,T,131.6,M,0.80,N,1.48,K*4B
$GPGGA,152608.500,4943.81904,N,01323.75279,E,1,0,666.6,359.7,M,46.0,M,,*68
$GPGLL,4943.81904,N,01323.75279,E,152608.500,A*3A
$GPRMC,152608.500,A,4943.81904,N,01323.75279,E,0.80,131.6,021210,0.0,E*5B
$GPVTG,131.6,T,131.6,M,0.80,N,1.48,K*4B
$GPGGA,152608.500,4943.81904,N,01323.75279,E,1,0,666.6,359.7,M,46.0,M,,*68
$GPGLL,4943.81904,N,01323.75279,E,152608.500,A*3A
$GPRMC,152608.500,A,4943.81904,N,01323.75279,E,0.80,131.6,021210,0.0,E*5B
$GPVTG,131.6,T,131.6,M,0.80,N,1.48,K*4B
$GPGSA,A,3,22,,,,,,,,,,,,666.6,666.6,666.6*32
$GPGGA,152608.500,4943.81904,N,01323.75279,E,1,0,666.6,359.7,M,46.0,M,,*68
$GPGLL,4943.81904,N,01323.75279,E,152608.500,A*3A
$GPRMC,152608.500,A,4943.81904,N,01323.75279,E,0.80,131.6,021210,0.0,E*5B
$GPVTG,131.6,T,131.6,M,0.80,N,1.48,K*4B
$GPGGA,152608.500,4943.81904,N,01323.75279,E,1,0,666.6,359.7,M,46.0,M,,*68
$GPGLL,4943.81904,N,01323.75279,E,152608.500,A*3A
$GPRMC,152608.500,A,4943.81904,N,01323.75279,E,0.80,131.6,021210,0.0,E*5B
$GPVTG,131.6,T,131.6,M,0.80,N,1.48,K*4B
$GPGGA,152608.500,4943.81904,N,01323.75279,E,1,0,666.6,359.7,M,46.0,M,,*68
$GPGLL,4943.81904,N,01323.75279,E,152608.500,A*3A
$GPRMC,152608.500,A,4943.81904,N,01323.75279,E,0.80,131.6,021210,0.0,E*5B
$GPVTG,131.6,T,131.6,M,0.80,N,1.48,K*4B
$GPGGA,152608.500,4943.81904,N,01323.75279,E,1,0,666.6,359.7,M,46.0,M,,*68
$GPGLL,4943.81904,N,01323.75279,E,152608.500,A*3A
$GPRMC,152608.500,A,4943.81904,N,01323.75279,E,0.80,131.6,021210,0.0,E*5B
$GPVTG,131.6,T,131.6,M,0.80,N,1.48,K*4B
$GPGGA,152608.500,4943.81904,N,01323.75279,E,1,0,666.6,359.7,M,46.0,M,,*68
$GPGLL,4943.81904,N,01323.75279,E,152608.500,A*3A
$GPRMC,152608.500,A,4943.81904,N,01323.75279,E,0.80,131.6,021210,0.0,E*5B
$GPVTG,131.6,T,131.6,M,0.80,N,1.48,K*4B
$GPGSA,A,3,22,,,,,,,,,,,,666.6,666.6,666.6*32
$GPGGA,152608.500,4943.81904,N,01323.75279,E,1,0,666.6,359.7,M,46.0,M,,*68
$GPGLL,4943.81904,N,01323.75279,E,152608.500,A*3A
$GPRMC,152608.500,A,4943.81904,N,01323.75279,E,0.80,131.6,021210,0.0,E*5B
$GPVTG,131.6,T,131.6,M,0.80,N,1.48,K*4B
$GPGGA,152608.500,4943.81904,N,01323.75279,E,1,0,666.6,359.7,M,46.0,M,,*68
$GPGLL,4943.81904,N,01323.75279,E,152608.500,A*3A
$GPRMC,152608.500,A,4943.81904,N,01323.75279,E,0.80,131.6,021210,0.0,E*5B
$GPVTG,131.6,T,131.6,M,0.80,N,1.48,K*4B
$GPGGA,152608.500,4943.81904,N,01323.75279,E,1,0,666.6,359.7,M,46.0,M,,*68
$GPGLL,4943.81904,N,01323.75279,E,152608.500,A*3A
$GPRMC,152608.500,A,4943.81904,N,01323.75279,E,0.80,131.6,021210,0.0,E*5B
$GPVTG,131.6,T,131.6,M,0.80,N,1.48,K*4B
$GPGGA,152608.500,4943.81904,N,01323.75279,E,1,0,666.6,359.7,M,46.0,M,,*68
$GPGLL,4943.81904,N,01323.75279,E,152608.500,A*3A
$GPRMC,152608.500,A,4943.81904,N,01323.75279,E,0.80,131.6,021210,0.0,E*5B
$GPVTG,131.6,T,131.6,M,0.80,N,1.48,K*4B
$GPGGA,152608.500,4943.81904,N,01323.75279,E,1,0,666.6,359.7,M,46.0,M,,*68
$GPGLL,4943.81904,N,01323.75279,E,152608.500,A*3A
$GPRMC,152608.500,A,4943.81904,N,01323.75279,E,0.80,131.6,021210,0.0,E*5B
$GPVTG,131.6,T,131.6,M,0.80,N,1.48,K*4B
$GPGSA,A,3,22,,,,,,,,,,,,666.6,666.6,666.6*32
$GPGGA,152608.500,4943.81904,N,01323.75279,E,1,0,666.6,359.7,M,46.0,M,,*68
$GPGLL,4943.81904,N,01323.75279,E,152608.500,A*3A
$GPRMC,152608.500,A,4943.81904,N,01323.75279,E,0.80,131.6,021210,0.0,E*5B
$GPVTG,131.6,T,131.6,M,0.80,N,1.48,K*4B
$GPGGA,152608.500,4943.81904,N,01323.75279,E,1,0,666.6,359.7,M,46.0,M,,*68
$GPGLL,4943.81904,N,01323.75279,E,152608.500,A*3A
$GPRMC,152608.500,A,4943.81904,N,01323.75279,E,0.80,131.6,021210,0.0,E*5B
$GPVTG,131.6,T,131.6,M,0.80,N,1.48,K*4B
$GPGGA,152608.500,4943.81904,N,01323.75279,E,1,0,666.6,359.7,M,46.0,M,,*68
$GPGLL,4943.81904,N,01323.75279,E,152608.500,A*3A
$GPRMC,152608.500,A,4943.81904,N,01323.75279,E,0.80,131.6,021210,0.0,E*5B
$GPVTG,131.6,T,131.6,M,0.80,N,1.48,K*4B
$GPGGA,152608.500,4943.81904,N,01323.75279,E,1,0,666.6,359.7,M,46.0,M,,*68
$GPGLL,4943.81904,N,01323.75279,E,152608.500,A*3A
$GPRMC,152608.500,A,4943.81904,N,01323.75279,E,0.80,131.6,021210,0.0,E*5B
$GPVTG,131.6,T,131.6,M,0.80,N,1.48,K*4B
$GPGGA,152608.500,4943.81904,N,01323.75279,E,1,0,666.6,359.7,M,46.0,M,,*68
$GPGLL,4943.81904,N,01323.75279,E,152608.500,A*3A
$GPRMC,152608.500,A,4943.81904,N,01323.75279,E,0.80,131.6,021210,0.0,E*5B
$GPVTG,131.6,T,131.6,M,0.80,N,1.48,K*4B
$GPGSA,A,3,22,,,,,,,,,,,,666.6,666.6,666.6*32
$GPGGA,152608.500,4943.81904,N,01323.75279,E,1,0,666.6,359.7,M,46.0,M,,*68
$GPGLL,4943.81904,N,01323.75279,E,152608.500,A*3A
$GPRMC,152608.500,A,4943.81904,N,01323.75279,E,0.80,131.6,021210,0.0,E*5B
$GPVTG,131.6,T,131.6,M,0.80,N,1.48,K*4B
$GPGGA,152608.500,4943.81904,N,01323.75279,E,1,0,666.6,359.7,M,46.0,M,,*68
$GPGLL,4943.81904,N,01323.75279,E,152608.500,A*3A
$GPRMC,152608.500,A,4943.81904,N,01323.75279,E,0.80,131.6,021210,0.0,E*5B
$GPVTG,131.6,T,131.6,M,0.80,N,1.48,K*4B
$GPGGA,152608.500,4943.81904,N,01323.75279,E,1,0,666.6,359.7,M,46.0,M,,*68
$GPGLL,4943.81904,N,01323.75279,E,152608.500,A*3A
$GPRMC,152608.500,A,4943.81904,N,01323.75279,E,0.80,131.6,021210,0.0,E*5B
$GPVTG,131.6,T,131.6,M,0.80,N,1.48,K*4B
$GPGGA,152608.500,4943.81904,N,01323.75279,E,1,0,666.6,359.7,M,46.0,M,,*68
$GPGLL,4943.81904,N,01323.75279,E,152608.500,A*3A
$GPRMC,152608.500,A,4943.81904,N,01323.75279,E,0.80,131.6,021210,0.0,E*5B
$GPVTG,131.6,T,131.6,M,0.80,N,1.48,K*4B
$GPGGA,152608.500,4943.81904,N,01323.75279,E,1,0,666.6,359.7,M,46.0,M,,*68
$GPGLL,4943.81904,N,01323.75279,E,152608.500,A*3A
$GPRMC,152608.500,A,4943.81904,N,01323.75279,E,0.80,131.6,021210,0.0,E*5B
$GPVTG,131.6,T,131.6,M,0.80,N,1.48,K*4B
$GPGSA,A,3,22,,,,,,,,,,,,666.6,666.6,666.6*32
$GPGGA,152608.500,4943.81904,N,01323.75279,E,1,0,666.6,359.7,M,46.0,M,,*68
$GPGLL,4943.81904,N,01323.75279,E,152608.500,A*3A
$GPRMC,152608.500,A,4943.81904,N,01323.75279,E,0.80,131.6,021210,0.0,E*5B
$GPVTG,131.6,T,131.6,M,0.80,N,1.48,K*4B
$GPGGA,152608.500,4943.81904,N,01323.75279,E,1,0,666.6,359.7,M,46.0,M,,*68
$GPGLL,4943.81904,N,01323.75279,E,152608.500,A*3A
$GPRMC,152608.500,A,4943.81904,N,01323.75279,E,0.80,131.6,021210,0.0,E*5B
$GPVTG,131.6,T,131.6,M,0.80,N,1.48,K*4B
$GPGGA,152608.500,4943.81904,N,01323.75279,E,1,0,666.6,359.7,M,46.0,M,,*68
$GPGLL,4943.81904,N,01323.75279,E,152608.500,A*3A
$GPRMC,152608.500,A,4943.81904,N,01323.75279,E,0.80,131.6,021210,0.0,E*5B
$GPVTG,131.6,T,131.6,M,0.80,N,1.48,K*4B
$GPGGA,152608.500,4943.81904,N,01323.75279,E,1,0,666.6,359.7,M,46.0,M,,*68
$GPGLL,4943.81904,N,01323.75279,E,152608.500,A*3A
$GPRMC,152608.500,A,4943.81904,N,01323.75279,E,0.80,131.6,021210,0.0,E*5B
$GPVTG,131.6,T,131.6,M,0.80,N,1.48,K*4B
$GPGGA,152608.500,4943.81904,N,01323.75279,E,1,0,666.6,359.7,M,46.0,M,,*68
$GPGLL,4943.81904,N,01323.75279,E,152608.500,A*3A
$GPRMC,152608.500,A,4943.81904,N,01323.75279,E,0.80,131.6,021210,0.0,E*5B
$GPVTG,131.6,T,131.6,M,0.80,N,1.48,K*4B
$GPGSA,A,3,22,,,,,,,,,,,,666.6,666.6,666.6*32
$GPGGA,152608.500,4943.81904,N,01323.75279,E,1,0,666.6,359.7,M,46.0,M,,*68
$GPGLL,4943.81904,N,01323.75279,E,152608.500,A*3A
$GPRMC,152608.500,A,4943.81904,N,01323.75279,E,0.80,131.6,021210,0.0,E*5B
$GPVTG,131.6,T,131.6,M,0.80,N,1.48,K*4B
$GPGGA,152608.500,4943.81904,N,01323.75279,E,1,0,666.6,359.7,M,46.0,M,,*68
$GPGLL,4943.81904,N,01323.75279,E,152608.500,A*3A
$GPRMC,152608.500,A,4943.81904,N,01323.75279,E,0.80,131.6,021210,0.0,E*5B
$GPVTG,131.6,T,131.6,M,0.80,N,1.48,K*4B
$GPGGA,152608.500,4943.81904,N,01323.75279,E,1,0,666.6,359.7,M,46.0,M,,*68
$GPGLL,4943.81904,N,01323.75279,E,152608.500,A*3A
$GPRMC,152608.500,A,4943.81904,N,01323.75279,E,0.80,131.6,021210,0.0,E*5B
$GPVTG,131.6,T,131.6,M,0.80,N,1.48,K*4B
$GPGGA,152608.500,4943.81904,N,01323.75279,E,1,0,666.6,359.7,M,46.0,M,,*68
$GPGLL,4943.81904,N,01323.75279,E,152608.500,A*3A
$GPRMC,152608.500,A,4943.81904,N,01323.75279,E,0.80,131.6,021210,0.0,E*5B
$GPVTG,131.6,T,131.6,M,0.80,N,1.48,K*4B
$GPGGA,152608.500,4943.81904,N,01323.75279,E,1,0,666.6,359.7,M,46.0,M,,*68
$GPGLL,4943.81904,N,01323.75279,E,152608.500,A*3A
$GPRMC,152608.500,A,4943.81904,N,01323.75279,E,0.80,131.6,021210,0.0,E*5B
$GPVTG,131.6,T,131.6,M,0.80,N,1.48,K*4B
$GPGSA,A,3,22,,,,,,,,,,,,666.6,666.6,666.6*32
$GPGGA,152608.500,4943.81904,N,01323.75279,E,1,0,666.6,359.7,M,46.0,M,,*68
$GPGLL,4943.81904,N,01323.75279,E,152608.500,A*3A
$GPRMC,152608.500,A,4943.81904,N,01323.75279,E,0.80,131.6,021210,0.0,E*5B
$GPVTG,131.6,T,131.6,M,0.80,N,1.48,K*4B
$GPGGA,152608.500,4943.81904,N,01323.75279,E,1,0,666.6,359.7,M,46.0,M,,*68
$GPGLL,4943.81904,N,01323.75279,E,152608.500,A*3A
$GPRMC,152608.500,A,4943.81904,N,01323.75279,E,0.80,131.6,021210,0.0,E*5B
$GPVTG,131.6,T,131.6,M,0.80,N,1.48,K*4B
$GPGGA,152608.500,4943.81904,N,01323.75279,E,1,0,666.6,359.7,M,46.0,M,,*68
$GPGLL,4943.81904,N,01323.75279,E,152608.500,A*3A
$GPRMC,152608.500,A,4943.81904,N,01323.75279,E,0.80,131.6,021210,0.0,E*5B
$GPVTG,131.6,T,131.6,M,0.80,N,1.48,K*4B
$GPGGA,152608.500,4943.81904,N,01323.75279,E,1,0,666.6,359.7,M,46.0,M,,*68
$GPGLL,4943.81904,N,01323.75279,E,152608.500,A*3A
$GPRMC,152608.500,A,4943.81904,N,01323.75279,E,0.80,131.6,021210,0.0,E*5B
$GPVTG,131.6,T,131.6,M,0.80,N,1.48,K*4B
$GPGGA,152608.500,4943.81904,N,01323.75279,E,1,0,666.6,359.7,M,46.0,M,,*68
$GPGLL,4943.81904,N,01323.75279,E,152608.500,A*3A
$GPRMC,152608.500,A,4943.81904,N,01323.75279,E,0.80,131.6,021210,0.0,E*5B
$GPVTG,131.6,T,131.6,M,0.80,N,1.48,K*4B
$GPGSA,A,3,22,,,,,,,,,,,,666.6,666.6,666.6*32
$GPGGA,152608.500,4943.81904,N,01323.75279,E,1,0,666.6,359.7,M,46.0,M,,*68
$GPGLL,4943.81904,N,01323.75279,E,152608.500,A*3A
$GPRMC,152608.500,A,4943.81904,N,01323.75279,E,0.80,131.6,021210,0.0,E*5B
$GPVTG,131.6,T,131.6,M,0.80,N,1.48,K*4B
$GPGGA,152608.500,4943.81904,N,01323.75279,E,1,0,666.6,359.7,M,46.0,M,,*68
$GPGLL,4943.81904,N,01323.75279,E,152608.500,A*3A
$GPRMC,152608.500,A,4943.81904,N,01323.75279,E,0.80,131.6,021210,0.0,E*5B
$GPVTG,131.6,T,131.6,M,0.80,N,1.48,K*4B
$GPGGA,152608.500,4943.81904,N,01323.75279,E,1,0,666.6,359.7,M,46.0,M,,*68
$GPGLL,4943.81904,N,01323.75279,E,152608.500,A*3A
$GPRMC,152608.500,A,4943.81904,N,01323.75279,E,0.80,131.6,021210,0.0,E*5B
$GPVTG,131.6,T,131.6,M,0.80,N,1.48,K*4B
$GPGGA,152608.500,4943.81904,N,01323.75279,E,1,0,666.6,359.7,M,46.0,M,,*68
$GPGLL,4943.81904,N,01323.75279,E,152608.500,A*3A
$GPRMC,152608.500,A,4943.81904,N,01323.75279,E,0.80,131.6,021210,0.0,E*5B
$GPVTG,131.6,T,131.6,M,0.80,N,1.48,K*4B
$GPGGA,152608.500,4943.81904,N,01323.75279,E,1,0,666.6,359.7,M,46.0,M,,*68
$GPGLL,4943.81904,N,01323.75279,E,152608.500,A*3A
$GPRMC,152608.500,A,4943.81904,N,01323.75279,E,0.80,131.6,021210,0.0,E*5B
$GPVTG,131.6,T,131.6,M,0.80,N,1.48,K*4B
$GPGSA,A,3,22,,,,,,,,,,,,666.6,666.6,666.6*32
$GPGGA,152608.500,4943.81904,N,01323.75279,E,1,0,666.6,359.7,M,46.0,M,,*68
$GPGLL,4943.81904,N,01323.75279,E,152608.500,A*3A
$GPRMC,152608.500,A,4943.81904,N,01323.75279,E,0.80,131.6,021210,0.0,E*5B
$GPVTG,131.6,T,131.6,M,0.80,N,1.48,K*4B
$GPGGA,152608.500,4943.81904,N,01323.75279,E,1,0,666.6,359.7,M,46.0,M,,*68
$GPGLL,4943.81904,N,01323.75279,E,152608.500,A*3A
$GPRMC,152608.500,A,4943.81904,N,01323.75279,E,0.80,131.6,021210,0.0,E*5B
$GPVTG,131.6,T,131.6,M,0.80,N,1.48,K*4B
$GPGGA,152608.500,4943.81904,N,01323.75279,E,1,0,666.6,359.7,M,46.0,M,,*68
$GPGLL,4943.81904,N,01323.75279,E,152608.500,A*3A
$GPRMC,152608.500,A,4943.81904,N,01323.75279,E,0.80,131.6,021210,0.0,E*5B
$GPVTG,131.6,T,131.6,M,0.80,N,1.48,K*4B
$GPGGA,152608.500,4943.81904,N,01323.75279,E,1,0,666.6,359.7,M,46.0,M,,*68
$GPGLL,4943.81904,N,01323.75279,E,152608.500,A*3A
$GPRMC,152608.500,A,4943.81904,N,01323.75279,E,0.80,131.6,021210,0.0,E*5B
$GPVTG,131.6,T,131.6,M,0.80,N,1.48,K*4B
$GPGGA,152608.500,4943.81904,N,01323.75279,E,1,0,666.6,359.7,M,46.0,M,,*68
$GPGLL,4943.81904,N,01323.75279,E,152608.500,A*3A
$GPRMC,152608.500,A,4943.81904,N,01323.75279,E,0.80,131.6,021210,0.0,E*5B
$GPVTG,131.6,T,131.6,M,0.80,N,1.48,K*4B
$GPGSA,A,3,22,,,,,,,,,,,,666.6,666.6,666.6*32
$GPGGA,152608.500,4943.81904,N,01323.75279,E,1,0,666.6,359.7,M,46.0,M,,*68
$GPGLL,4943.81904,N,01323.75279,E,152608.500,A*3A
$GPRMC,152608.500,A,4943.81904,N,01323.75279,E,0.80,131.6,021210,0.0,E*5B
$GPVTG,131.6,T,131.6,M,0.80,N,1.48,K*4B
$GPGGA,152608.500,4943.81904,N,01323.75279,E,1,0,666.6,359.7,M,46.0,M,,*68
$GPGLL,4943.81904,N,01323.75279,E,152608.500,A*3A
$GPRMC,152608.500,A,4943.81904,N,01323.75279,E,0.80,131.6,021210,0.0,E*5B
$GPVTG,131.6,T,131.6,M,0.80,N,1.48,K*4B
$GPGGA,152608.500,4943.81904,N,01323.75279,E,1,0,666.6,359.7,M,46.0,M,,*68
$GPGLL,4943.81904,N,01323.75279,E,152608.500,A*3A
$GPRMC,152608.500,A,4943.81904,N,01323.75279,E,0.80,131.6,021210,0.0,E*5B
$GPVTG,131.6,T,131.6,M,0.80,N,1.48,K*4B
$GPGGA,152608.500,4943.81904,N,01323.75279,E,1,0,666.6,359.7,M,46.0,M,,*68
$GPGLL,4943.81904,N,01323.75279,E,152608.500,A*3A
$GPRMC,152608.500,A,4943.81904,N,01323.75279,E,0.80,131.6,021210,0.0,E*5B
$GPVTG,131.6,T,131.6,M,0.80,N,1.48,K*4B
$GPGGA,152608.500,4943.81904,N,01323.75279,E,1,0,666.6,359.7,M,46.0,M,,*68
$GPGLL,4943.81904,N,01323.75279,E,152608.500,A*3A
$GPRMC,152608.500,A,4943.81904,N,01323.75279,E,0.80,131.6,021210,0.0,E*5B
$GPVTG,131.6,T,131.6,M,0.80,N,1.48,K*4B
$GPGSA,A,3,22,,,,,,,,,,,,666.6,666.6,666.6*32
$GPGGA,152608.500,4943.81904,N,01323.75279,E,1,1,666.6,359.7,M,46.0,M,,*69
$GPGLL,4943.81904,N,01323.75279,E,152608.500,A*3A
$GPRMC,152608.500,A,4943.81904,N,01323.75279,E,0.80,131.6,021210,0.0,E*5B
$GPVTG,131.6,T,131.6,M,0.80,N,1.48,K*4B
$GPGGA,152608.500,4943.81904,N,01323.75279,E,1,1,666.6,359.7,M,46.0,M,,*69
$GPGLL,4943.81904,N,01323.75279,E,152608.500,A*3A
$GPRMC,152608.500,A,4943.81904,N,01323.75279,E,0.80,131.6,021210,0.0,E*5B
$GPVTG,131.6,T,131.6,M,0.80,N,1.48,K*4B
$GPGGA,152608.500,4943.81904,N,01323.75279,E,1,2,666.6,359.7,M,46.0,M,,*6A
$GPGLL,4943.81904,N,01323.75279,E,152608.500,A*3A
$GPRMC,152608.500,A,4943.81904,N,01323.75279,E,0.80,131.6,021210,0.0,E*5B
$GPVTG,131.6,T,131.6,M,0.80,N,1.48,K*4B
$GPGGA,152608.500,4943.81904,N,01323.75279,E,1,2,666.6,359.7,M,46.0,M,,*6A
$GPGLL,4943.81904,N,01323.75279,E,152608.500,A*3A
$GPRMC,152608.500,A,4943.81904,N,01323.75279,E,0.80,131.6,021210,0.0,E*5B
$GPVTG,131.6,T,131.6,M,0.80,N,1.48,K*4B
$GPGGA,152608.500,4943.81904,N,01323.75279,E,1,0,666.6,359.7,M,46.0,M,,*68
$GPGLL,4943.81904,N,01323.75279,E,152608.500,A*3A
$GPRMC,152608.500,A,4943.81904,N,01323.75279,E,0.80,131.6,021210,0.0,E*5B
$GPVTG,131.6,T,131.6,M,0.80,N,1.48,K*4B
$GPGSA,A,3,22,,,,,,,,,,,,666.6,666.6,666.6*32
$GPGSV,1,1,01,22,05,064,17*49
$GPGGA,152608.500,4943.81904,N,01323.75279,E,1,2,666.6,359.7,M,46.0,M,,*6A
$GPGLL,4943.81904,N,01323.75279,E,152608.500,A*3A
$GPRMC,152608.500,A,4943.81904,N,01323.75279,E,0.80,131.6,021210,0.0,E*5B
$GPVTG,131.6,T,131.6,M,0.80,N,1.48,K*4B
$GPGGA,152608.500,4943.81904,N,01323.75279,E,1,2,666.6,359.7,M,46.0,M,,*6A
$GPGLL,4943.81904,N,01323.75279,E,152608.500,A*3A
$GPRMC,152608.500,A,4943.81904,N,01323.75279,E,0.80,131.6,021210,0.0,E*5B
$GPVTG,131.6,T,131.6,M,0.80,N,1.48,K*4B
$GPGGA,152608.500,4943.81904,N,01323.75279,E,1,2,666.6,359.7,M,46.0,M,,*6A
$GPGLL,4943.81904,N,01323.75279,E,152608.500,A*3A
$GPRMC,152608.500,A,4943.81904,N,01323.75279,E,0.80,131.6,021210,0.0,E*5B
$GPVTG,131.6,T,131.6,M,0.80,N,1.48,K*4B
$GPGGA,152608.500,4943.81904,N,01323.75279,E,1,2,666.6,359.7,M,46.0,M,,*6A
$GPGLL,4943.81904,N,01323.75279,E,152608.500,A*3A
$GPRMC,152608.500,A,4943.81904,N,01323.75279,E,0.80,131.6,021210,0.0,E*5B
$GPVTG,131.6,T,131.6,M,0.80,N,1.48,K*4B
$GPGGA,152608.500,4943.81904,N,01323.75279,E,1,2,666.6,359.7,M,46.0,M,,*6A
$GPGLL,4943.81904,N,01323.75279,E,152608.500,A*3A
$GPRMC,152608.500,A,4943.81904,N,01323.75279,E,0.80,131.6,021210,0.0,E*5B
$GPVTG,131.6,T,131.6,M,0.80,N,1.48,K*4B
$GPGSA,A,3,22,,,,,,,,,,,,666.6,666.6,666.6*32
$GPGSV,1,1,01,22,05,064,14*4A
$GPGGA,152608.500,4943.81904,N,01323.75279,E,1,2,666.6,359.7,M,46.0,M,,*6A
$GPGLL,4943.81904,N,01323.75279,E,152608.500,A*3A
$GPRMC,152608.500,A,4943.81904,N,01323.75279,E,0.80,131.6,021210,0.0,E*5B
$GPVTG,131.6,T,131.6,M,0.80,N,1.48,K*4B
$GPGGA,152608.500,4943.81904,N,01323.75279,E,1,0,666.6,359.7,M,46.0,M,,*68
$GPGLL,4943.81904,N,01323.75279,E,152608.500,A*3A
$GPRMC,152608.500,A,4943.81904,N,01323.75279,E,0.80,131.6,021210,0.0,E*5B
$GPVTG,131.6,T,131.6,M,0.80,N,1.48,K*4B
$GPGGA,152608.500,4943.81904,N,01323.75279,E,1,3,666.6,359.7,M,46.0,M,,*6B
$GPGLL,4943.81904,N,01323.75279,E,152608.500,A*3A
$GPRMC,152608.500,A,4943.81904,N,01323.75279,E,0.80,131.6,021210,0.0,E*5B
$GPVTG,131.6,T,131.6,M,0.80,N,1.48,K*4B
$GPGGA,152608.500,4943.81904,N,01323.75279,E,1,5,666.6,359.7,M,46.0,M,,*6D
$GPGLL,4943.81904,N,01323.75279,E,152608.500,A*3A
$GPRMC,152608.500,A,4943.81904,N,01323.75279,E,0.80,131.6,021210,0.0,E*5B
$GPVTG,131.6,T,131.6,M,0.80,N,1.48,K*4B
$GPGGA,152608.500,4943.81904,N,01323.75279,E,1,8,666.6,359.7,M,46.0,M,,*60
$GPGLL,4943.81904,N,01323.75279,E,152608.500,A*3A
$GPRMC,152608.500,A,4943.81904,N,01323.75279,E,0.80,131.6,021210,0.0,E*5B
$GPVTG,131.6,T,131.6,M,0.80,N,1.48,K*4B
$GPGSA,A,3,17,19,20,22,28,32,,,,,,,1.7,1.1,1.3*31
$GPGSV,2,1,07,20,43,248,32,17,20,316,30,32,74,243,30,11,73,264,29*7F
$GPGSV,2,2,07,28,12,277,28,14,35,053,19,22,04,066,13*44
$GPGGA,153217.800,4943.82807,N,01323.68839,E,1,8,1.1,323.9,M,46.0,M,,*66
$GPGLL,4943.82807,N,01323.68839,E,153217.800,A*3F
$GPRMC,153217.800,A,4943.82807,N,01323.68839,E,2.70,215.3,021210,0.0,E*53
$GPVTG,215.3,T,215.3,M,2.70,N,5.00,K*4E
$GPGGA,153218.800,4943.82742,N,01323.68751,E,1,8,1.1,325.3,M,46.0,M,,*6A
$GPGLL,4943.82742,N,01323.68751,E,153218.800,A*3F
$GPRMC,153218.800,A,4943.82742,N,01323.68751,E,2.80,224.8,021210,0.0,E*55
$GPVTG,224.8,T,224.8,M,2.80,N,5.19,K*49
$GPGGA,153219.800,4943.82586,N,01323.68297,E,1,9,1.1,335.5,M,46.0,M,,*68
$GPGLL,4943.82586,N,01323.68297,E,153219.800,A*3B
$GPRMC,153219.800,A,4943.82586,N,01323.68297,E,2.80,223.7,021210,0.0,E*59
$GPVTG,223.7,T,223.7,M,2.80,N,5.19,K*49
$GPGGA,153220.800,4943.82429,N,01323.68129,E,1,9,1.1,336.5,M,46.0,M,,*63
$GPGLL,4943.82429,N,01323.68129,E,153220.800,A*33
$GPRMC,153220.800,A,4943.82429,N,01323.68129,E,2.60,224.5,021210,0.0,E*5A
$GPVTG,224.5,T,224.5,M,2.60,N,4.82,K*44
$GPGGA,153221.800,4943.82276,N,01323.67999,E,1,9,1.1,336.9,M,46.0,M,,*6E
$GPGLL,4943.82276,N,01323.67999,E,153221.800,A*32
$GPRMC,153221.800,A,4943.82276,N,01323.67999,E,2.10,214.2,021210,0.0,E*58
$GPVTG,214.2,T,214.2,M,2.10,N,3.89,K*4F
$GPGSA,A,3,17,19,20,24,28,31,32,,,,,,1.7,1.3,1.1*35
$GPGSV,3,1,09,19,27,175,33,32,74,243,32,20,43,248,32,24,81,101,31*7D
$GPGSV,3,2,09,11,73,264,29,28,12,277,24,14,35,053,19,31,04,113,16*7C
$GPGGA,153222.800,4943.82151,N,01323.67999,E,1,10,1.3,339.2,M,46.0,M,,*55
$GPGLL,4943.82151,N,01323.67999,E,153222.800,A*37
$GPRMC,153222.800,A,4943.82151,N,01323.67999,E,0.00,214.2,021210,0.0,E*5E
$GPVTG,214.2,T,214.2,M,0.00,N,0.00,K*4E
$GPGGA,153223.800,4943.82014,N,01323.67946,E,1,10,1.3,340.9,M,46.0,M,,*53
$GPGLL,4943.82014,N,01323.67946,E,153223.800,A*34
$GPRMC,153223.800,A,4943.82014,N,01323.67946,E,1.80,151.3,021210,0.0,E*57
$GPVTG,151.3,T,151.3,M,1.80,N,3.33,K*44
$GPGGA,153224.800,4943.81969,N,01323.67958,E,1,9,1.3,344.0,M,46.0,M,,*6E
$GPGLL,4943.81969,N,01323.67958,E,153224.800,A*3C
$GPRMC,153224.800,A,4943.81969,N,01323.67958,E,1.40,151.3,021210,0.0,E*53
$GPVTG,151.3,T,151.3,M,1.40,N,2.59,K*45
$GPGGA,153226.800,4943.81726,N,01323.67983,E,1,10,1.3,342.5,M,46.0,M,,*54
$GPGLL,4943.81726,N,01323.67983,E,153226.800,A*3D
$GPRMC,153226.800,A,4943.81726,N,01323.67983,E,1.70,164.1,021210,0.0,E*55
$GPVTG,164.1,T,164.1,M,1.70,N,3.15,K*4F
$GPGGA,153227.800,4943.81619,N,01323.67981,E,1,10,1.3,343.3,M,46.0,M,,*5D
$GPGLL,4943.81619,N,01323.67981,E,153227.800,A*33
$GPRMC,153227.800,A,4943.81619,N,01323.67981,E,1.70,167.5,021210,0.0,E*5C
$GPVTG,167.5,T,167.5,M,1.70,N,3.15,K*4F
$GPGSA,A,3,14,17,19,20,24,28,31,32,,,,,1.5,1.0,1.1*31
$GPGSV,3,1,10,19,27,175,32,32,74,243,31,20,43,248,31,11,73,264,28*77
$GPGSV,3,2,10,28,12,277,26,17,20,316,25,31,04,113,16,22,04,066,13*75
$GPGGA,153228.800,4943.81488,N,01323.67857,E,1,11,1.0,343.1,M,46.0,M,,*52
$GPGLL,4943.81488,N,01323.67857,E,153228.800,A*3C
$GPRMC,153228.800,A,4943.81488,N,01323.67857,E,1.80,173.8,021210,0.0,E*54
$GPVTG,173.8,T,173.8,M,1.80,N,3.33,K*44
$GPGGA,153229.800,4943.81509,N,01323.67901,E,1,10,1.0,343.6,M,46.0,M,,*5F
$GPGLL,4943.81509,N,01323.67901,E,153229.800,A*37
$GPRMC,153229.800,A,4943.81509,N,01323.67901,E,0.00,173.8,021210,0.0,E*56
$GPVTG,173.8,T,173.8,M,0.00,N,0.00,K*4E
$GPGGA,153230.800,4943.81508,N,01323.67901,E,1,10,1.0,343.6,M,46.0,M,,*56
$GPGLL,4943.81508,N,01323.67901,E,153230.800,A*3E
$GPRMC,153230.800,A,4943.81508,N,01323.67901,E,0.00,173.8,021210,0.0,E*5F
$GPVTG,173.8,T,173.8,M,0.00,N,0.00,K*4E
$GPGGA,153231.800,4943.81504,N,01323.67886,E,1,10,1.0,343.5,M,46.0,M,,*56
$GPGLL,4943.81504,N,01323.67886,E,153231.800,A*3D
$GPRMC,153231.800,A,4943.81504,N,01323.67886,E,0.00,173.8,021210,0.0,E*5C
$GPVTG,173.8,T,173.8,M,0.00,N,0.00,K*4E
$GPGGA,153232.800,4943.81489,N,01323.67861,E,1,10,1.0,343.8,M,46.0,M,,*55
$GPGLL,4943.81489,N,01323.67861,E,153232.800,A*33
$GPRMC,153232.800,A,4943.81489,N,01323.67861,E,0.00,173.8,021210,0.0,E*52
$GPVTG,173.8,T,173.8,M,0.00,N,0.00,K*4E
$GPGSA,A,3,14,17,19,20,24,28,31,32,,,,,1.5,1.0,1.1*31
$GPGSV,3,1,09,32,74,243,30,24,81,101,29,19,27,175,29,11,73,262,28*7F
$GPGSV,3,2,09,17,20,316,27,28,12,277,24,31,04,113,18,23,03,195,15*7E
$GPGGA,153233.800,4943.81484,N,01323.67869,E,1,10,1.0,343.7,M,46.0,M,,*5E
$GPGLL,4943.81484,N,01323.67869,E,153233.800,A*37
$GPRMC,153233.800,A,4943.81484,N,01323.67869,E,0.00,173.8,021210,0.0,E*56
$GPVTG,173.8,T,173.8,M,0.00,N,0.00,K*4E
$GPGGA,153236.800,4943.81311,N,01323.68119,E,1,10,1.0,339.1,M,46.0,M,,*5A
$GPGLL,4943.81311,N,01323.68119,E,153236.800,A*38
$GPRMC,153236.800,A,4943.81311,N,01323.68119,E,2.00,143.4,021210,0.0,E*54
$GPVTG,143.4,T,143.4,M,2.00,N,3.70,K*48
$GPGGA,153237.800,4943.81267,N,01323.68183,E,1,10,1.0,338.8,M,46.0,M,,*50
$GPGLL,4943.81267,N,01323.68183,E,153237.800,A*3A
$GPRMC,153237.800,A,4943.81267,N,01323.68183,E,2.10,141.3,021210,0.0,E*52
$GPVTG,141.3,T,141.3,M,2.10,N,3.89,K*4F
$GPGGA,153238.800,4943.81239,N,01323.68279,E,1,10,1.0,337.7,M,46.0,M,,*52
$GPGLL,4943.81239,N,01323.68279,E,153238.800,A*38
$GPRMC,153238.800,A,4943.81239,N,01323.68279,E,2.80,151.5,021210,0.0,E*5E
$GPVTG,151.5,T,151.5,M,2.80,N,5.19,K*49
$GPGGA,153239.800,4943.81238,N,01323.68378,E,1,10,1.0,335.8,M,46.0,M,,*5F
$GPGLL,4943.81238,N,01323.68378,E,153239.800,A*38
$GPRMC,153239.800,A,4943.81238,N,01323.68378,E,3.00,145.8,021210,0.0,E*5F
$GPVTG,145.8,T,145.8,M,3.00,N,5.56,K*4B
$GPGSA,A,3,17,19,20,24,28,31,32,,,,,,1.5,1.0,1.1*34
$GPGSV,3,1,09,32,74,243,36,17,20,316,35,20,43,248,35,11,73,262,35*7F
$GPGSV,3,2,09,24,81,101,34,28,12,277,30,31,04,113,20,14,35,053,13*71
$GPGGA,153240.800,4943.81179,N,01323.68421,E,1,10,1.0,334.1,M,46.0,M,,*54
$GPGLL,4943.81179,N,01323.68421,E,153240.800,A*3B
$GPRMC,153240.800,A,4943.81179,N,01323.68421,E,3.00,152.3,021210,0.0,E*51
$GPVTG,152.3,T,152.3,M,3.00,N,5.56,K*4B
$GPGGA,153241.800,4943.81129,N,01323.68516,E,1,10,1.0,334.5,M,46.0,M,,*51
$GPGLL,4943.81129,N,01323.68516,E,153241.800,A*3A
$GPRMC,153241.800,A,4943.81129,N,01323.68516,E,3.00,146.4,021210,0.0,E*52
$GPVTG,146.4,T,146.4,M,3.00,N,5.56,K*4B
$GPGGA,153242.800,4943.81052,N,01323.68633,E,1,10,1.0,334.7,M,46.0,M,,*59
$GPGLL,4943.81052,N,01323.68633,E,153242.800,A*30
$GPRMC,153242.800,A,4943.81052,N,01323.68633,E,2.90,145.7,021210,0.0,E*50
$GPVTG,145.7,T,145.7,M,2.90,N,5.37,K*44
$GPGGA,153243.800,4943.81004,N,01323.68759,E,1,10,1.0,334.3,M,46.0,M,,*52
$GPGLL,4943.81004,N,01323.68759,E,153243.800,A*3F
$GPRMC,153243.800,A,4943.81004,N,01323.68759,E,2.70,146.4,021210,0.0,E*51
$GPVTG,146.4,T,146.4,M,2.70,N,5.00,K*4E
$GPGGA,153244.800,4943.80961,N,01323.68883,E,1,10,1.0,334.1,M,46.0,M,,*54
$GPGLL,4943.80961,N,01323.68883,E,153244.800,A*3B
$GPRMC,153244.800,A,4943.80961,N,01323.68883,E,2.80,144.3,021210,0.0,E*5F
$GPVTG,144.3,T,144.3,M,2.80,N,5.19,K*49
$GPGSA,A,3,17,19,20,24,28,32,,,,,,,1.5,1.0,1.1*36
$GPGSV,3,1,09,19,27,175,38,32,74,243,36,20,43,248,36,11,73,262,35*7F
$GPGSV,3,2,09,28,12,277,34,24,81,101,33,31,04,113,19,23,03,195,17*76
$GPGGA,153245.800,4943.80919,N,01323.69011,E,1,10,1.0,333.9,M,46.0,M,,*57
$GPGLL,4943.80919,N,01323.69011,E,153245.800,A*37
$GPRMC,153245.800,A,4943.80919,N,01323.69011,E,2.70,145.6,021210,0.0,E*58
$GPVTG,145.6,T,145.6,M,2.70,N,5.00,K*4E
$GPGGA,153246.800,4943.80866,N,01323.69104,E,1,10,1.0,334.0,M,46.0,M,,*56
$GPGLL,4943.80866,N,01323.69104,E,153246.800,A*38
$GPRMC,153246.800,A,4943.80866,N,01323.69104,E,2.70,150.9,021210,0.0,E*5C
$GPVTG,150.9,T,150.9,M,2.70,N,5.00,K*4E
$GPGGA,153247.800,4943.80823,N,01323.69189,E,1,10,1.0,334.1,M,46.0,M,,*52
$GPGLL,4943.80823,N,01323.69189,E,153247.800,A*3D
$GPRMC,153247.800,A,4943.80823,N,01323.69189,E,2.80,146.7,021210,0.0,E*5F
$GPVTG,146.7,T,146.7,M,2.80,N,5.19,K*49
$GPGGA,153248.800,4943.80766,N,01323.69296,E,1,10,1.0,334.1,M,46.0,M,,*5E
$GPGLL,4943.80766,N,01323.69296,E,153248.800,A*31
$GPRMC,153248.800,A,4943.80766,N,01323.69296,E,2.70,151.5,021210,0.0,E*58
$GPVTG,151.5,T,151.5,M,2.70,N,5.00,K*4E
$GPGGA,153249.800,4943.80704,N,01323.69359,E,1,10,1.0,334.1,M,46.0,M,,*59
$GPGLL,4943.80704,N,01323.69359,E,153249.800,A*36
$GPRMC,153249.800,A,4943.80704,N,01323.69359,E,2.70,149.7,021210,0.0,E*54
$GPVTG,149.7,T,149.7,M,2.70,N,5.00,K*4E
$GPGSA,A,3,17,19,20,24,28,32,,,,,,,1.5,1.0,1.1*36
$GPGSV,3,1,09,20,43,248,36,19,27,175,36,28,12,277,35,32,74,243,34*7A
$GPGSV,3,2,09,11,73,262,33,24,81,101,32,23,03,195,21,31,04,113,19*7C
$GPGGA,153250.800,4943.80638,N,01323.69413,E,1,10,1.0,334.3,M,46.0,M,,*54
$GPGLL,4943.80638,N,01323.69413,E,153250.800,A*39
$GPRMC,153250.800,A,4943.80638,N,01323.69413,E,2.60,152.8,021210,0.0,E*5F
$GPVTG,152.8,T,152.8,M,2.60,N,4.82,K*44
$GPGGA,153251.800,4943.80573,N,01323.69451,E,1,10,1.0,334.8,M,46.0,M,,*54
$GPGLL,4943.80573,N,01323.69451,E,153251.800,A*32
$GPRMC,153251.800,A,4943.80573,N,01323.69451,E,2.40,150.1,021210,0.0,E*5D
$GPVTG,150.1,T,150.1,M,2.40,N,4.44,K*4C
$GPGGA,153252.800,4943.80509,N,01323.69497,E,1,10,1.0,334.9,M,46.0,M,,*51
$GPGLL,4943.80509,N,01323.69497,E,153252.800,A*36
$GPRMC,153252.800,A,4943.80509,N,01323.69497,E,2.60,148.6,021210,0.0,E*55
$GPVTG,148.6,T,148.6,M,2.60,N,4.82,K*44
$GPGGA,153253.800,4943.80454,N,01323.69563,E,1,10,1.0,335.1,M,46.0,M,,*5A
$GPGLL,4943.80454,N,01323.69563,E,153253.800,A*34
$GPRMC,153253.800,A,4943.80454,N,01323.69563,E,2.70,145.4,021210,0.0,E*59
$GPVTG,145.4,T,145.4,M,2.70,N,5.00,K*4E
$GPGGA,153254.800,4943.80396,N,01323.69629,E,1,10,1.0,334.8,M,46.0,M,,*51
$GPGLL,4943.80396,N,01323.69629,E,153254.800,A*37
$GPRMC,153254.800,A,4943.80396,N,01323.69629,E,2.60,148.2,021210,0.0,E*50
$GPVTG,148.2,T,148.2,M,2.60,N,4.82,K*44
$GPGSA,A,3,17,19,20,24,28,32,,,,,,,1.5,1.0,1.1*36
$GPGSV,3,1,09,32,74,243,36,17,20,314,36,28,11,277,36,11,73,262,34*7F
$GPGSV,3,2,09,20,43,248,33,24,81,101,32,31,04,113,20,23,03,195,18*75
$GPGGA,153255.800,4943.80344,N,01323.69689,E,1,10,1.0,335.0,M,46.0,M,,*5C
$GPGLL,4943.80344,N,01323.69689,E,153255.800,A*33
$GPRMC,153255.800,A,4943.80344,N,01323.69689,E,2.40,150.8,021210,0.0,E*55
$GPVTG,150.8,T,150.8,M,2.40,N,4.44,K*4C
$GPGGA,153256.800,4943.80288,N,01323.69729,E,1,10,1.0,335.3,M,46.0,M,,*56
$GPGLL,4943.80288,N,01323.69729,E,153256.800,A*3A
$GPRMC,153256.800,A,4943.80288,N,01323.69729,E,2.40,150.7,021210,0.0,E*53
$GPVTG,150.7,T,150.7,M,2.40,N,4.44,K*4C
$GPGGA,153257.800,4943.80237,N,01323.69791,E,1,10,1.0,335.5,M,46.0,M,,*56
$GPGLL,4943.80237,N,01323.69791,E,153257.800,A*3C
$GPRMC,153257.800,A,4943.80237,N,01323.69791,E,2.40,145.4,021210,0.0,E*52
$GPVTG,145.4,T,145.4,M,2.40,N,4.44,K*4C
$GPGGA,153258.800,4943.80184,N,01323.69836,E,1,10,1.0,335.7,M,46.0,M,,*52
$GPGLL,4943.80184,N,01323.69836,E,153258.800,A*3A
$GPRMC,153258.800,A,4943.80184,N,01323.69836,E,2.30,148.1,021210,0.0,E*5B
$GPVTG,148.1,T,148.1,M,2.30,N,4.26,K*4F
$GPGGA,153259.800,4943.80139,N,01323.69892,E,1,10,1.0,336.1,M,46.0,M,,*5E
$GPGLL,4943.80139,N,01323.69892,E,153259.800,A*33
$GPRMC,153259.800,A,4943.80139,N,01323.69892,E,2.30,149.2,021210,0.0,E*50
$GPVTG,149.2,T,149.2,M,2.30,N,4.26,K*4F
$GPGSA,A,3,17,19,20,24,28,31,32,,,,,,1.5,1.0,1.1*34
$GPGSV,3,1,09,28,11,277,37,32,74,243,35,20,43,248,35,19,29,175,32*73
$GPGSV,3,2,09,11,73,267,32,24,82,097,29,31,04,113,28,23,03,195,15*7A
$GPGGA,153300.800,4943.80094,N,01323.69951,E,1,10,1.0,336.5,M,46.0,M,,*5F
$GPGLL,4943.80094,N,01323.69951,E,153300.800,A*36
$GPRMC,153300.800,A,4943.80094,N,01323.69951,E,2.10,147.4,021210,0.0,E*5F
$GPVTG,147.4,T,147.4,M,2.10,N,3.89,K*4F
$GPGGA,153301.800,4943.80058,N,01323.70006,E,1,10,1.0,336.6,M,46.0,M,,*5E
$GPGLL,4943.80058,N,01323.70006,E,153301.800,A*34
$GPRMC,153301.800,A,4943.80058,N,01323.70006,E,1.80,145.2,021210,0.0,E*53
$GPVTG,145.2,T,145.2,M,1.80,N,3.33,K*44
$GPGGA,153302.800,4943.80008,N,01323.70021,E,1,10,1.0,336.7,M,46.0,M,,*5C
$GPGLL,4943.80008,N,01323.70021,E,153302.800,A*37
$GPRMC,153302.800,A,4943.80008,N,01323.70021,E,2.00,163.8,021210,0.0,E*55
$GPVTG,163.8,T,163.8,M,2.00,N,3.70,K*48
$GPGGA,153303.800,4943.79951,N,01323.70044,E,1,10,1.0,336.8,M,46.0,M,,*52
$GPGLL,4943.79951,N,01323.70044,E,153303.800,A*36
$GPRMC,153303.800,A,4943.79951,N,01323.70044,E,2.10,149.8,021210,0.0,E*5D
$GPVTG,149.8,T,149.8,M,2.10,N,3.89,K*4F
$GPGGA,153304.800,4943.79904,N,01323.70093,E,1,11,1.0,336.9,M,46.0,M,,*5F
$GPGLL,4943.79904,N,01323.70093,E,153304.800,A*3B
$GPRMC,153304.800,A,4943.79904,N,01323.70093,E,2.10,138.6,021210,0.0,E*58
$GPVTG,138.6,T,138.6,M,2.10,N,3.89,K*4F
$GPGSA,A,3,17,19,20,24,28,31,32,,,,,,1.5,1.0,1.1*34
$GPGSV,3,1,10,32,73,241,36,20,42,248,34,19,27,175,34,11,74,262,33*7C
$GPGSV,3,2,10,28,12,278,32,24,81,102,31,31,04,113,28,14,35,053,14*7D
$GPGGA,153305.800,4943.79868,N,01323.70147,E,1,11,1.0,336.9,M,46.0,M,,*5D
$GPGLL,4943.79868,N,01323.70147,E,153305.800,A*39
$GPRMC,153305.800,A,4943.79868,N,01323.70147,E,2.00,147.0,021210,0.0,E*55
$GPVTG,147.0,T,147.0,M,2.00,N,3.70,K*48
$GPGGA,153306.800,4943.79819,N,01323.70216,E,1,11,1.0,336.8,M,46.0,M,,*5E
$GPGLL,4943.79819,N,01323.70216,E,153306.800,A*3B
$GPRMC,153306.800,A,4943.79819,N,01323.70216,E,1.90,146.2,021210,0.0,E*5E
$GPVTG,146.2,T,146.2,M,1.90,N,3.52,K*42
$GPGGA,153307.800,4943.79786,N,01323.70266,E,1,11,1.0,336.7,M,46.0,M,,*5E
$GPGLL,4943.79786,N,01323.70266,E,153307.800,A*34
$GPRMC,153307.800,A,4943.79786,N,01323.70266,E,1.70,135.9,021210,0.0,E*50
$GPVTG,135.9,T,135.9,M,1.70,N,3.15,K*4F
$GPGGA,153308.800,4943.79753,N,01323.70331,E,1,11,1.0,336.7,M,46.0,M,,*5A
$GPGLL,4943.79753,N,01323.70331,E,153308.800,A*30
$GPRMC,153308.800,A,4943.79753,N,01323.70331,E,1.80,158.1,021210,0.0,E*58
$GPVTG,158.1,T,158.1,M,1.80,N,3.33,K*44
$GPGGA,153309.800,4943.79708,N,01323.70359,E,1,11,1.0,336.6,M,46.0,M,,*5A
$GPGLL,4943.79708,N,01323.70359,E,153309.800,A*31
$GPRMC,153309.800,A,4943.79708,N,01323.70359,E,2.00,154.9,021210,0.0,E*56
$GPVTG,154.9,T,154.9,M,2.00,N,3.70,K*48
$GPGSA,A,3,17,19,20,24,28,31,32,,,,,,1.5,1.0,1.1*34
$GPGSV,3,1,10,17,19,316,38,32,73,241,36,20,42,248,36,28,12,278,36*72
$GPGSV,3,2,10,11,74,262,35,24,81,102,34,31,04,113,27,14,35,053,24*72
$GPGGA,153310.800,4943.79664,N,01323.70411,E,1,11,1.0,336.7,M,46.0,M,,*53
$GPGLL,4943.79664,N,01323.70411,E,153310.800,A*39
$GPRMC,153310.800,A,4943.79664,N,01323.70411,E,2.40,152.7,021210,0.0,E*52
$GPVTG,152.7,T,152.7,M,2.40,N,4.44,K*4C
$GPGGA,153311.800,4943.79606,N,01323.70471,E,1,11,1.0,337.0,M,46.0,M,,*56
$GPGLL,4943.79606,N,01323.70471,E,153311.800,A*3A
$GPRMC,153311.800,A,4943.79606,N,01323.70471,E,2.60,148.3,021210,0.0,E*5C
$GPVTG,148.3,T,148.3,M,2.60,N,4.82,K*44
$GPGGA,153312.800,4943.79544,N,01323.70524,E,1,11,1.0,337.2,M,46.0,M,,*53
$GPGLL,4943.79544,N,01323.70524,E,153312.800,A*3D
$GPRMC,153312.800,A,4943.79544,N,01323.70524,E,2.70,151.5,021210,0.0,E*54
$GPVTG,151.5,T,151.5,M,2.70,N,5.00,K*4E
$GPGGA,153314.800,4943.79407,N,01323.70628,E,1,11,1.0,337.2,M,46.0,M,,*5C
$GPGLL,4943.79407,N,01323.70628,E,153314.800,A*32
$GPRMC,153314.800,A,4943.79407,N,01323.70628,E,2.50,152.5,021210,0.0,E*5A
$GPVTG,152.5,T,152.5,M,2.50,N,4.63,K*48
$GPGGA,153315.800,4943.79349,N,01323.70678,E,1,11,1.0,337.1,M,46.0,M,,*56
$GPGLL,4943.79349,N,01323.70678,E,153315.800,A*3B
$GPRMC,153315.800,A,4943.79349,N,01323.70678,E,2.30,152.1,021210,0.0,E*51
$GPVTG,152.1,T,152.1,M,2.30,N,4.26,K*4F
$GPGSA,A,3,14,17,19,20,24,28,31,32,,,,,1.5,1.0,1.1*31
$GPGSV,3,1,10,32,73,241,30,28,12,278,28,17,19,316,27,24,81,102,27*73
$GPGSV,3,2,10,11,74,262,27,31,04,113,25,19,27,175,24,14,35,053,24*70
$GPGGA,153316.800,4943.79299,N,01323.70736,E,1,11,1.0,336.8,M,46.0,M,,*5A
$GPGLL,4943.79299,N,01323.70736,E,153316.800,A*3F
